[{"id":"11b57e055d7f4664b422003e4350c016","name":"长春凯撒森林温泉旅游度假区","description":null,"aLevel":"4A","longitude":125.45035,"latitude":43.797668,"cityId":"e6cc702a5d774f788e848142b3cf2124","cityName":"长春市","cityCode":"0431","districtId":"2f7bf2e62a8f4053b6343e469a045736","districtName":"南关区"},{"id":"c12966a037244dd49a311031eaa3d8e8","name":"长春北湖湿地公园","description":null,"aLevel":"4A","longitude":125.363691,"latitude":43.977003,"cityId":"e6cc702a5d774f788e848142b3cf2124","cityName":"长春市","cityCode":"0431","districtId":"66a9cd5f0b544b788fe3ed296396aeec","districtName":"宽城区"},{"id":"ceca7ad4e6604d37ab10489bd751d83e","name":"庙香山温泉滑雪度假区","description":null,"aLevel":"4A","longitude":125.886491,"latitude":43.960443,"cityId":"e6cc702a5d774f788e848142b3cf2124","cityName":"长春市","cityCode":"0431","districtId":"48c19922280a4ae283c49e9bbcbc5b07","districtName":"九台区"},{"id":"af153ee05bad472abf31612da681eab8","name":"御龙温泉度假村景区","description":null,"aLevel":"4A","longitude":125.705391,"latitude":43.596307,"cityId":"e6cc702a5d774f788e848142b3cf2124","cityName":"长春市","cityCode":"0431","districtId":"02dc4512ef5c4c5487a6412dc20a18ec","districtName":"双阳区"},{"id":"4c15eba69e9941b1a5696f002f02e6d1","name":"天怡温泉度假山庄","description":null,"aLevel":"4A","longitude":125.393544,"latitude":43.588602,"cityId":"e6cc702a5d774f788e848142b3cf2124","cityName":"长春市","cityCode":"0431","districtId":"2f7bf2e62a8f4053b6343e469a045736","districtName":"南关区"},{"id":"48e17558d9da493692c478941cea5329","name":"长春农业博览园","description":null,"aLevel":"4A","longitude":125.429924,"latitude":43.810518,"cityId":"e6cc702a5d774f788e848142b3cf2124","cityName":"长春市","cityCode":"0431","districtId":"2f7bf2e62a8f4053b6343e469a045736","districtName":"南关区"},{"id":"12acb35e0bff41ab96b2a4782185bf53","name":"孔子文化园景区","description":null,"aLevel":"4A","longitude":125.350736,"latitude":43.886478,"cityId":"e6cc702a5d774f788e848142b3cf2124","cityName":"长春市","cityCode":"0431","districtId":"2f7bf2e62a8f4053b6343e469a045736","districtName":"南关区"},{"id":"b679ebdb0f024b97b238d2e7d4c34922","name":"东北师范大学东北民族民俗博物馆景区","description":null,"aLevel":"4A","longitude":125.402925,"latitude":43.838102,"cityId":"e6cc702a5d774f788e848142b3cf2124","cityName":"长春市","cityCode":"0431","districtId":"2f7bf2e62a8f4053b6343e469a045736","districtName":"南关区"},{"id":"671149960245413bbc51d90bd809d07f","name":"长影旧址博物馆景区","description":null,"aLevel":"4A","longitude":125.292355,"latitude":43.86364,"cityId":"e6cc702a5d774f788e848142b3cf2124","cityName":"长春市","cityCode":"0431","districtId":"4aea2781cd0e4c5295515db8e42a8634","districtName":"朝阳区"},{"id":"9876d792a4354e89aa23d9f7c768491a","name":"酒文化博物馆","description":null,"aLevel":"4A","longitude":125.340496,"latitude":43.828283,"cityId":"e6cc702a5d774f788e848142b3cf2124","cityName":"长春市","cityCode":"0431","districtId":"2f7bf2e62a8f4053b6343e469a045736","districtName":"南关区"},{"id":"7a3e190eba4a499eb999e27059d14c12","name":"动植物公园","description":null,"aLevel":"4A","longitude":125.341537,"latitude":43.864285,"cityId":"e6cc702a5d774f788e848142b3cf2124","cityName":"长春市","cityCode":"0431","districtId":"2f7bf2e62a8f4053b6343e469a045736","districtName":"南关区"},{"id":"27b7def4967848e896b2fb1d579c8abf","name":"关东文化园景区","description":null,"aLevel":"4A","longitude":125.225028,"latitude":43.946446,"cityId":"e6cc702a5d774f788e848142b3cf2124","cityName":"长春市","cityCode":"0431","districtId":"61cc757ae5794bc983fd01693aadcfc7","districtName":"绿园区"}]