[{"id":"9b7d36645c8a4d05bcc81358db1598f9","name":"吉州窑景区","description":null,"aLevel":"4A","longitude":115.013416,"latitude":27.023327,"cityId":"e094f87da6c04f3b837b9b6b7096a53e","cityName":"吉安市","cityCode":"0796","districtId":"f55cea82dff7469394d29272a56acd2b","districtName":"吉安县"},{"id":"23b9b7a3ae7b40eab1b01a5ba2d0053b","name":"田北农民画村景区","description":null,"aLevel":"4A","longitude":114.634354,"latitude":26.623029,"cityId":"e094f87da6c04f3b837b9b6b7096a53e","cityName":"吉安市","cityCode":"0796","districtId":"42209ae3f2d1446bbc52710e490f7742","districtName":"万安县"},{"id":"578aca3186984ba4a2293634d6f8832a","name":"羊狮慕风景区","description":null,"aLevel":"4A","longitude":114.261658,"latitude":27.541493,"cityId":"e094f87da6c04f3b837b9b6b7096a53e","cityName":"吉安市","cityCode":"0796","districtId":"6165d1e41a12470ba1e23d7381aa5705","districtName":"安福县"},{"id":"dcb9357cd18e4fbdb291429429dd134d","name":"天祥景区","description":null,"aLevel":"4A","longitude":114.928493,"latitude":27.0402,"cityId":"e094f87da6c04f3b837b9b6b7096a53e","cityName":"吉安市","cityCode":"0796","districtId":"f55cea82dff7469394d29272a56acd2b","districtName":"吉安县"},{"id":"4444e276caaa4e68962a48902b3fa7ef","name":"东固景区","description":null,"aLevel":"4A","longitude":115.325112,"latitude":26.81313,"cityId":"e094f87da6c04f3b837b9b6b7096a53e","cityName":"吉安市","cityCode":"0796","districtId":"7862b00cb97e4f46b7e435bcbd047b15","districtName":"青原区"},{"id":"67f49674bdbb42a095265d0041dd84e2","name":"茶博园（ 印象大红袍体验中心  ）","description":null,"aLevel":"4A","longitude":114.539988,"latitude":26.335137,"cityId":"e094f87da6c04f3b837b9b6b7096a53e","cityName":"吉安市","cityCode":"0796","districtId":"00061c0c4ba24680bee54cedfc73e051","districtName":"遂川县"},{"id":"fd2ae2ed76794a1ba9d3965d9e189e49","name":"渼陂古村景区","description":null,"aLevel":"4A","longitude":115.120128,"latitude":26.937176,"cityId":"e094f87da6c04f3b837b9b6b7096a53e","cityName":"吉安市","cityCode":"0796","districtId":"7862b00cb97e4f46b7e435bcbd047b15","districtName":"青原区"},{"id":"854db5cc0e91419b8e5db272add1415d","name":"富田镇陂下古村","description":null,"aLevel":"4A","longitude":115.23145,"latitude":26.80398,"cityId":"e094f87da6c04f3b837b9b6b7096a53e","cityName":"吉安市","cityCode":"0796","districtId":"7862b00cb97e4f46b7e435bcbd047b15","districtName":"青原区"},{"id":"2cde482a61ca434eb6fbb58eae9d3f1e","name":"江西阳明山景区","description":null,"aLevel":"4A","longitude":114.976671,"latitude":27.118075,"cityId":"e094f87da6c04f3b837b9b6b7096a53e","cityName":"吉安市","cityCode":"0796","districtId":"b92b1959f63a4f71ae1fdc128e925f5c","districtName":"吉州区"},{"id":"ec07c427494145538859ebb0adce99fa","name":"钓源景区","description":null,"aLevel":"4A","longitude":114.845405,"latitude":27.18939,"cityId":"e094f87da6c04f3b837b9b6b7096a53e","cityName":"吉安市","cityCode":"0796","districtId":"b92b1959f63a4f71ae1fdc128e925f5c","districtName":"吉州区"},{"id":"b7dff7fb075b4e4c8d07efacfbea23d3","name":"三湾改编景区","description":null,"aLevel":"4A","longitude":113.971813,"latitude":26.844101,"cityId":"e094f87da6c04f3b837b9b6b7096a53e","cityName":"吉安市","cityCode":"0796","districtId":"52912cab450b48bb9ea3a9580de114f1","districtName":"永新县"},{"id":"0952b008466c4ce08b70f0193ce7d8b7","name":"青原山风景区","description":null,"aLevel":"4A","longitude":115.045792,"latitude":27.054556,"cityId":"e094f87da6c04f3b837b9b6b7096a53e","cityName":"吉安市","cityCode":"0796","districtId":"7862b00cb97e4f46b7e435bcbd047b15","districtName":"青原区"},{"id":"ab349824fa2344d2b063f52321d85e47","name":"燕坊古村景区","description":null,"aLevel":"4A","longitude":115.081314,"latitude":27.212795,"cityId":"e094f87da6c04f3b837b9b6b7096a53e","cityName":"吉安市","cityCode":"0796","districtId":"e565ce5f48df4379932323aa4f501e49","districtName":"吉水县"}]