[{"id":"07e486cca80f44678d9d20f72ae5eb17","name":"蓬莱仙界·白云休闲农业旅游景区","description":null,"aLevel":"4A","longitude":106.65056,"latitude":26.683792,"cityId":"07c2ae3b49fc4d6a9dad83ae828e1751","cityName":"贵阳市","cityCode":"0851","districtId":"cbf175e045484bc9bbb13922d513defd","districtName":"白云区"},{"id":"ea37ffda311b49bd945e335a0696325d","name":"乌当保利国际温泉景区","description":null,"aLevel":"4A","longitude":106.759543,"latitude":26.609257,"cityId":"07c2ae3b49fc4d6a9dad83ae828e1751","cityName":"贵阳市","cityCode":"0851","districtId":"2cb9ba6c97c248158edce9826b7b56f3","districtName":"乌当区"},{"id":"d21a99cf89ae4b308fb24cc063c2604a","name":"野生动物园","description":null,"aLevel":"4A","longitude":106.591958,"latitude":26.836048,"cityId":"07c2ae3b49fc4d6a9dad83ae828e1751","cityName":"贵阳市","cityCode":"0851","districtId":"bfc2ea4ca43f4372b959c41cb34ee64b","districtName":"修文县"},{"id":"6f46c8a1e40d4d3d90db5c93317b635a","name":"乡愁贵州景区","description":null,"aLevel":"4A","longitude":106.409223,"latitude":26.580059,"cityId":"07c2ae3b49fc4d6a9dad83ae828e1751","cityName":"贵阳市","cityCode":"0851","districtId":"52ca237e20214d05b84d8f78ffa15075","districtName":"清镇市"},{"id":"587356c1f1654a94b52d7bfb06c1f3b0","name":"桃源河旅游景区","description":null,"aLevel":"4A","longitude":106.842538,"latitude":26.907257,"cityId":"07c2ae3b49fc4d6a9dad83ae828e1751","cityName":"贵阳市","cityCode":"0851","districtId":"bfc2ea4ca43f4372b959c41cb34ee64b","districtName":"修文县"},{"id":"ad865054d7a74ee3914b86a336a3e69e","name":"泉湖公园景区","description":null,"aLevel":"4A","longitude":106.618317,"latitude":26.671771,"cityId":"07c2ae3b49fc4d6a9dad83ae828e1751","cityName":"贵阳市","cityCode":"0851","districtId":"cbf175e045484bc9bbb13922d513defd","districtName":"白云区"},{"id":"fa2a9ac363e749ce8e3c8848e952f138","name":"黔灵山公园旅游景区","description":null,"aLevel":"4A","longitude":106.697875,"latitude":26.587743,"cityId":"07c2ae3b49fc4d6a9dad83ae828e1751","cityName":"贵阳市","cityCode":"0851","districtId":"eaa6faaec41a4721864c7e905f49a117","districtName":"云岩区"},{"id":"ff45ffe1ab9e4405a1ae88bb8801132d","name":"阿哈湖湿地公园景区","description":null,"aLevel":"4A","longitude":106.670451,"latitude":26.548737,"cityId":"07c2ae3b49fc4d6a9dad83ae828e1751","cityName":"贵阳市","cityCode":"0851","districtId":"58dfad2dce3344c2ae5ab8d134f53502","districtName":"南明区"},{"id":"9ab0e8b31c564a3eae178bcc167e4f93","name":"天河潭景区","description":null,"aLevel":"4A","longitude":106.581742,"latitude":26.449256,"cityId":"07c2ae3b49fc4d6a9dad83ae828e1751","cityName":"贵阳市","cityCode":"0851","districtId":"49257929bcf34b99ade416533402f852","districtName":"花溪区"},{"id":"b5a6a778884c448bbce18dacb188e6aa","name":"开阳南江大峡谷景区","description":null,"aLevel":"4A","longitude":106.995755,"latitude":26.947475,"cityId":"07c2ae3b49fc4d6a9dad83ae828e1751","cityName":"贵阳市","cityCode":"0851","districtId":"472fdbc1f74747a7bea8eff11d81f57e","districtName":"开阳县"},{"id":"ee81ee50666e4ddab4c9b0a771821b78","name":"开阳白马峪旅游景区","description":null,"aLevel":"4A","longitude":106.77956,"latitude":26.988751,"cityId":"07c2ae3b49fc4d6a9dad83ae828e1751","cityName":"贵阳市","cityCode":"0851","districtId":"472fdbc1f74747a7bea8eff11d81f57e","districtName":"开阳县"},{"id":"82c9d8dea16b407abe52b2a7285d287f","name":"贵御温泉旅游景区","description":null,"aLevel":"4A","longitude":106.770685,"latitude":26.615689,"cityId":"07c2ae3b49fc4d6a9dad83ae828e1751","cityName":"贵阳市","cityCode":"0851","districtId":"2cb9ba6c97c248158edce9826b7b56f3","districtName":"乌当区"},{"id":"40e4687c5a9f4e218fb5b48635ef9676","name":"集中营革命历史纪念馆景区","description":null,"aLevel":"4A","longitude":106.741403,"latitude":27.041418,"cityId":"07c2ae3b49fc4d6a9dad83ae828e1751","cityName":"贵阳市","cityCode":"0851","districtId":"335bfdfe9514498a9c81bcd6f7203c3f","districtName":"息烽县"},{"id":"6d2204eaeb804396a7f7ba75105f906a","name":"时光贵州旅游区","description":null,"aLevel":"4A","longitude":106.467976,"latitude":26.575651,"cityId":"07c2ae3b49fc4d6a9dad83ae828e1751","cityName":"贵阳市","cityCode":"0851","districtId":"52ca237e20214d05b84d8f78ffa15075","districtName":"清镇市"},{"id":"cfc9c793e780493a9520be03d1650fa3","name":"双龙多彩贵州“风景眼”文化创意园景区","description":null,"aLevel":"4A","longitude":106.703573,"latitude":26.560943,"cityId":"07c2ae3b49fc4d6a9dad83ae828e1751","cityName":"贵阳市","cityCode":"0851","districtId":"58dfad2dce3344c2ae5ab8d134f53502","districtName":"南明区"},{"id":"4e5c24722c6048ac8f2bca802b068ff6","name":"双龙多彩贵州旅游区","description":null,"aLevel":"4A","longitude":106.703573,"latitude":26.560943,"cityId":"07c2ae3b49fc4d6a9dad83ae828e1751","cityName":"贵阳市","cityCode":"0851","districtId":"58dfad2dce3344c2ae5ab8d134f53502","districtName":"南明区"},{"id":"02ef06ca75184a84adbcee1754d55da5","name":"湿地公园（孔学堂）景区","description":null,"aLevel":"4A","longitude":106.678035,"latitude":26.464389,"cityId":"07c2ae3b49fc4d6a9dad83ae828e1751","cityName":"贵阳市","cityCode":"0851","districtId":"49257929bcf34b99ade416533402f852","districtName":"花溪区"},{"id":"2ec56976e68a4700b3caf6acefff8265","name":"阳明文化园旅游景区","description":null,"aLevel":"4A","longitude":106.608479,"latitude":26.848804,"cityId":"07c2ae3b49fc4d6a9dad83ae828e1751","cityName":"贵阳市","cityCode":"0851","districtId":"bfc2ea4ca43f4372b959c41cb34ee64b","districtName":"修文县"},{"id":"ac79399786e04c8c8991f9612b8dda2a","name":"乐湾国际温泉旅游区","description":null,"aLevel":"4A","longitude":106.827414,"latitude":26.631952,"cityId":"07c2ae3b49fc4d6a9dad83ae828e1751","cityName":"贵阳市","cityCode":"0851","districtId":"2cb9ba6c97c248158edce9826b7b56f3","districtName":"乌当区"},{"id":"0acc0496285545bdbb9afeb2a16bbdb6","name":"黔贵六广温泉旅游景区","description":null,"aLevel":"4A","longitude":106.439988,"latitude":27.001415,"cityId":"07c2ae3b49fc4d6a9dad83ae828e1751","cityName":"贵阳市","cityCode":"0851","districtId":"bfc2ea4ca43f4372b959c41cb34ee64b","districtName":"修文县"}]