[{"id":"4a6d9138065e4f2a839715691a3cffad","name":"甘肃省","description":null,"longitude":103.826777,"latitude":36.060634,"scenicSpots":[{"id":"5877abdaf581493d9f0e28a0141c9208","name":"冶力关景区","description":null,"aLevel":"5A","longitude":103.353665,"latitude":34.693009,"cityId":"63ecd862b4424cb79bde4ea22f2af75d","cityName":"甘南藏族自治州","cityCode":null,"districtId":"9c35d6afc938482f95155c122d88e52b","districtName":"临潭县"},{"id":"cdb6a5da44d6462daeea3173e1ddd338","name":"官鹅沟景区","description":"","aLevel":"5A","longitude":104.395494,"latitude":34.01212,"cityId":"b3e6808f08be497da5bb0298e692d27e","cityName":"陇南市","cityCode":null,"districtId":"4afc225c3f57427cafef80cf68f4a4ac","districtName":"宕昌县"},{"id":"5aaf05c39aff4b12a3f2396d3d9854fd","name":"崆峒山风景名胜区","description":"","aLevel":"5A","longitude":106.530016,"latitude":35.547444,"cityId":"9d7f691930094be0a29e8f1004192adf","cityName":"平凉市","cityCode":null,"districtId":"e23bd0e9b6e345e0974a720f95f1c9c9","districtName":"崆峒区"},{"id":"963697a68b0a4b78883e4c678ff4cf45","name":"临夏州炳灵寺世界文化遗产旅游区","description":"","aLevel":"5A","longitude":103.295592,"latitude":35.885202,"cityId":"2e82de9874d94261a1efe2cd7d822f99","cityName":"临夏回族自治州","cityCode":null,"districtId":"e68d13ff00334504a8eb826cd84f9959","districtName":"永靖县"},{"id":"d97e133205ec45098fc3bb1c33bcc99e","name":"嘉峪关文物景区","description":"","aLevel":"5A","longitude":98.223314,"latitude":39.807389,"cityId":"01085af1ddfb481c8c1442860149e804","cityName":"嘉峪关市","cityCode":null,"districtId":null,"districtName":""},{"id":"5f08539db8f54c678e7ccefd2133c8b2","name":"七彩丹霞景区","description":"","aLevel":"5A","longitude":100.062804,"latitude":38.97201,"cityId":"825de516ba514729a10bfb5f09feda67","cityName":"张掖市","cityCode":null,"districtId":"2bba86376c4e49559deab74dc1625640","districtName":"临泽县"},{"id":"a96d115335ac43d4895fe2551236bd7c","name":"敦煌鸣沙山月牙泉景区","description":"","aLevel":"5A","longitude":94.675394,"latitude":40.098092,"cityId":"205f4362a3c4448b983884debb1e48be","cityName":"酒泉市","cityCode":null,"districtId":"24b4414eb96f40f0b2312405e61ff5ba","districtName":"敦煌市"},{"id":"cf4c014eac1642d48cc7e532eafaad6b","name":"甘肃天水麦积山景区","description":"","aLevel":"5A","longitude":106.026547,"latitude":34.382628,"cityId":"c10622b4fc27422482a36022c228b1e8","cityName":"天水市","cityCode":null,"districtId":"710a5caa62ab4614b14703d801ba7558","districtName":"麦积区"}]},{"id":"5c8c44a5b6014022831d1c9263f66d91","name":"浙江省","description":null,"longitude":120.152575,"latitude":30.266619,"scenicSpots":[{"id":"40e3cf50a2e0443fb1f700d3f79ec16d","name":"金华双龙风景旅游区","description":null,"aLevel":"5A","longitude":119.625076,"latitude":29.167968,"cityId":"663116c6d96d43c993647e5065869420","cityName":"金华市","cityCode":null,"districtId":"93eb4403e6884bb89a1d8f734e845194","districtName":"婺城区"},{"id":"83789b70beef4e1b8753026ffeec91f2","name":"杭州西溪湿地旅游区","description":"","aLevel":"5A","longitude":120.060816,"latitude":30.25619,"cityId":"1f3eeb1b49194c368361484d40fd9fd9","cityName":"杭州市","cityCode":null,"districtId":"cfd985de4018437a8f92f6dc300565aa","districtName":"西湖区"},{"id":"27c96fa8567249b4b707064d6b35e885","name":"普陀山风景名胜区","description":"","aLevel":"5A","longitude":122.393559,"latitude":30.000523,"cityId":"d30c0bf8f3454c22990a995d6f1b1adc","cityName":"舟山市","cityCode":null,"districtId":"79ee56b4072c4e11a382a3d696a293a8","districtName":"普陀区"},{"id":"171c4877382a4bfd8c2a22037f8d06f0","name":"天一阁·月湖景区","description":"","aLevel":"5A","longitude":121.543318,"latitude":29.867686,"cityId":"a640d6d702894cce8880b659624e400d","cityName":"宁波市","cityCode":null,"districtId":"9f8740caa1124ac490e19e6adf808fbb","districtName":"海曙区"},{"id":"1b2e9d361ab445759f2e277794e4cb77","name":"雁荡山风景名胜区","description":"","aLevel":"5A","longitude":121.033716,"latitude":28.373656,"cityId":"2cdff9844e9041f6a6cf6074ba358795","cityName":"温州市","cityCode":null,"districtId":"8225f1147ca8443989de6b6c6c1ddb7b","districtName":"乐清市"},{"id":"34f816979605464896a8286458809c0b","name":"神仙居景区","description":"","aLevel":"5A","longitude":120.608247,"latitude":28.693292,"cityId":"b19a5e2014a3485193a77b29e040acfc","cityName":"台州市","cityCode":null,"districtId":"6678cb6f16b8445f992fb322e82d743f","districtName":"仙居县"},{"id":"e721167f275e4de7b23828929ee3e309","name":"刘伯温故里景区","description":"","aLevel":"5A","longitude":119.988101,"latitude":27.884162,"cityId":"2cdff9844e9041f6a6cf6074ba358795","cityName":"温州市","cityCode":null,"districtId":"d3786be6b0ee46cfbce932515b84921b","districtName":"文成县"},{"id":"f3ce9ef0cd7544c4be412a7abcf1ad33","name":"鲁迅故里沈园景区","description":"","aLevel":"5A","longitude":120.590038,"latitude":29.990298,"cityId":"61db2795fa364c7093429cfeca787399","cityName":"绍兴市","cityCode":null,"districtId":"b946299acf2e4d8889e4eab61f23ec5c","districtName":"越城区"},{"id":"2033829ed07a47638ffa2dd7c0d4c530","name":"西塘古镇旅游景区","description":"","aLevel":"5A","longitude":120.893023,"latitude":30.944646,"cityId":"7066f65d3f784d35afe7eb6dc1ca2a66","cityName":"嘉兴市","cityCode":null,"districtId":"88fc884709774b4eb400abbabf1f0e8d","districtName":"嘉善县"},{"id":"68f937f07f4a4ad093274281a9bc8dee","name":"江郎山·廿八都景区","description":"","aLevel":"5A","longitude":118.486176,"latitude":28.293731,"cityId":"ba4b2873d3c14fd28653a4b44853b140","cityName":"衢州市","cityCode":null,"districtId":"96b2f70c108b420284c7ecf0ee67dc00","districtName":"江山市"},{"id":"2bb2525bbf3545fa930e450bc4295d6d","name":"桐乡乌镇古镇旅游区","description":"","aLevel":"5A","longitude":120.486254,"latitude":30.748841,"cityId":"7066f65d3f784d35afe7eb6dc1ca2a66","cityName":"嘉兴市","cityCode":null,"districtId":"1a725052f7b349c5b051d6d7289f3ac1","districtName":"桐乡市"},{"id":"1b8e3179ed62442aa71b54ac04dbeeda","name":"南浔古镇景区","description":"","aLevel":"5A","longitude":120.431096,"latitude":30.874796,"cityId":"286aa83021b54f439fe2469d42d7662e","cityName":"湖州市","cityCode":null,"districtId":"7d9a1c0f267645b7a08a940434b53db6","districtName":"南浔区"},{"id":"8b239b15a5cc47bfa9605774c1fd38b8","name":"开化根宫佛国文化旅游景区","description":"","aLevel":"5A","longitude":118.394978,"latitude":29.132413,"cityId":"ba4b2873d3c14fd28653a4b44853b140","cityName":"衢州市","cityCode":null,"districtId":"5496a894ffe648a3832b19bf4fca916a","districtName":"开化县"},{"id":"493ed760776c450ca31d7cd0ed1a1fcc","name":"东阳横店影视城景区","description":"","aLevel":"5A","longitude":120.319986,"latitude":29.137909,"cityId":"663116c6d96d43c993647e5065869420","cityName":"金华市","cityCode":null,"districtId":"508ed8d11a994d9f830f09d591434f7e","districtName":"东阳市"},{"id":"b287d2a2acd740289bf295d490ea911d","name":"西湖风景名胜区","description":"","aLevel":"5A","longitude":120.158108,"latitude":30.241651,"cityId":"1f3eeb1b49194c368361484d40fd9fd9","cityName":"杭州市","cityCode":null,"districtId":"a472e3685e6f4dab8be4bd4817ea5ce6","districtName":"上城区"},{"id":"6e11cb1ab561414f856e9d6d287c0782","name":"奉化溪口-滕头旅游景区","description":"","aLevel":"5A","longitude":121.390114,"latitude":29.700923,"cityId":"a640d6d702894cce8880b659624e400d","cityName":"宁波市","cityCode":null,"districtId":"3a376db5b6f146d7af8da79615dfaba6","districtName":"奉化区"},{"id":"b944f4b2d2eb4dd38e27b3e45c1c2ac4","name":"千岛湖风景名胜区","description":"","aLevel":"5A","longitude":119.013049,"latitude":29.594359,"cityId":"1f3eeb1b49194c368361484d40fd9fd9","cityName":"杭州市","cityCode":null,"districtId":"fa41353de57a48c29c3bf1b4e9b4df1a","districtName":"淳安县"},{"id":"086b0d56297b4d80ac96dc21ff9a5413","name":"南湖旅游区","description":"","aLevel":"5A","longitude":120.753137,"latitude":30.753681,"cityId":"7066f65d3f784d35afe7eb6dc1ca2a66","cityName":"嘉兴市","cityCode":null,"districtId":"140833f57ea548a19a511748314fe9ca","districtName":"南湖区"},{"id":"90e50f06bc3d4828a77eea167543bf96","name":"梯田景区","description":null,"aLevel":"5A","longitude":119.487375,"latitude":28.048612,"cityId":"b49697b5c76a4cc59953ab543a96eb17","cityName":"丽水市","cityCode":null,"districtId":"023496e18fb84c139d14530be1e2b433","districtName":"云和县"},{"id":"7f819a373b59422d8692eaa466c88859","name":"天台山景区","description":"","aLevel":"5A","longitude":121.045844,"latitude":29.227823,"cityId":"b19a5e2014a3485193a77b29e040acfc","cityName":"台州市","cityCode":null,"districtId":"be2576b2c35b4957bdae499f5b2bdb21","districtName":"天台县"},{"id":"4ab3a91390514b948797eb52279620fb","name":"台州府城文化旅游区","description":"","aLevel":"5A","longitude":121.117232,"latitude":28.845475,"cityId":"b19a5e2014a3485193a77b29e040acfc","cityName":"台州市","cityCode":null,"districtId":"62e30aa9bb274a9fa63b7b9e7ad05911","districtName":"临海市"},{"id":"59cd1f2c9116499a8d23f6c8d1ea8b36","name":"缙云仙都景区","description":"","aLevel":"5A","longitude":120.132563,"latitude":28.685408,"cityId":"b49697b5c76a4cc59953ab543a96eb17","cityName":"丽水市","cityCode":null,"districtId":"a6b4f383202c4b0293ce3652edcb915b","districtName":"缙云县"}]},{"id":"e1fda41f3ee04d409ca6203b23b04fb0","name":"广东省","description":null,"longitude":113.266887,"latitude":23.133306,"scenicSpots":[{"id":"78a6af42af6742ba817a017bd756922d","name":"丹霞山景区","description":"","aLevel":"5A","longitude":113.597324,"latitude":24.810977,"cityId":"bdacf6a33a4f47ccaedb0b0097460edb","cityName":"韶关市","cityCode":null,"districtId":"eeaf9dc804d14d76829894db6fa95a02","districtName":"浈江区"},{"id":"6fb1e0ab58ce428ab86d0e69e6869ee1","name":"白云山风景区","description":"","aLevel":"5A","longitude":113.296962,"latitude":23.180002,"cityId":"ab3932b6a3a242389ddcdfaa26e18e98","cityName":"广州市","cityCode":null,"districtId":"88a018026f9a4bc19150bbd2723b1c99","districtName":"白云区"},{"id":"b4adfc2281024aeaada84262919d5e4a","name":"深圳华侨城旅游度假区","description":"","aLevel":"5A","longitude":113.990037,"latitude":22.537252,"cityId":"5096e44ab9dc4745937ef24eb7ac4206","cityName":"深圳市","cityCode":null,"districtId":"c99cf589717941b4ba0223d580890c43","districtName":"南山区"},{"id":"9f0de68148194ecd809f4cd3e5cb4228","name":"星湖旅游景区","description":"","aLevel":"5A","longitude":112.469409,"latitude":23.054571,"cityId":"0219709ab93943f994b840515b1abc8a","cityName":"肇庆市","cityCode":null,"districtId":"fb6be4896dcd405ba4dc4c92c839f56e","districtName":"端州区"},{"id":"18d845acd20c4822aa8b7b287249aa95","name":"长鹿旅游休博园","description":"","aLevel":"5A","longitude":113.289411,"latitude":22.878357,"cityId":"ead7f4f702c74dd89601c1fcd24ed085","cityName":"佛山市","cityCode":null,"districtId":"5aa7ca8a0be64f5c9e33bb6aaacbb17b","districtName":"顺德区"},{"id":"9909d88cc982468a81388839b0d45beb","name":"罗浮山景区","description":"","aLevel":"5A","longitude":114.034377,"latitude":23.264104,"cityId":"0fc52f8348e942a19b9b06bc7b549d00","cityName":"惠州市","cityCode":null,"districtId":"b2c456f4ca1d40d39fa1f7fd5eb8e1e8","districtName":"博罗县"},{"id":"6b16e809be194725a57091f2ef6732cf","name":"观澜湖休闲旅游区","description":"","aLevel":"5A","longitude":114.074026,"latitude":22.729673,"cityId":"5096e44ab9dc4745937ef24eb7ac4206","cityName":"深圳市","cityCode":null,"districtId":"79b57224461c4aaf827a15992cbfcd89","districtName":"龙华区"},{"id":"29cefef0b466459da8b1bd7ea26ec435","name":"雁南飞茶田景区","description":"","aLevel":"5A","longitude":116.364842,"latitude":24.386558,"cityId":"fb8961beda484c0fa0e9c2ef054f1a09","cityName":"梅州市","cityCode":null,"districtId":"2ef7afbaea8f410da55e1fcaf2053922","districtName":"梅县区"},{"id":"1bd01e7b86db45e7b91dc2e3a50fed62","name":"开平碉楼文化旅游区","description":"","aLevel":"5A","longitude":112.566042,"latitude":22.349721,"cityId":"2f0216a232084a29865b42c40325df71","cityName":"江门市","cityCode":null,"districtId":"4006cb04d1e74323909ff2553d4a1e20","districtName":"开平市"},{"id":"0e4817d6b93a439ba0ebe652e1a5c92d","name":"万绿湖风景区","description":null,"aLevel":"5A","longitude":114.631793,"latitude":23.774255,"cityId":"3b77aea035474657aee3077a090d1c30","cityName":"河源市","cityCode":null,"districtId":"0b614962cc7c4bd58cc1617b56bdbc22","districtName":"东源县"},{"id":"7e0f31b8572d4117bf55ea54ea0ae6bd","name":"西樵山景区","description":"","aLevel":"5A","longitude":112.977241,"latitude":22.924099,"cityId":"ead7f4f702c74dd89601c1fcd24ed085","cityName":"佛山市","cityCode":null,"districtId":"4c366d9dd51549d6ad8db60b170d22bd","districtName":"南海区"},{"id":"e810245d9b904d0ea0ebef0d560e090c","name":"孙中山故里旅游区","description":"","aLevel":"5A","longitude":113.527512,"latitude":22.447279,"cityId":"45e5289372d944d08b9a0098ef7e18e8","cityName":"中山市","cityCode":null,"districtId":null,"districtName":""},{"id":"1147709207f241fcb757f6db1b0e168c","name":"海陵岛大角湾海上丝路旅游区","description":"","aLevel":"5A","longitude":111.847476,"latitude":21.569849,"cityId":"aece19e2c71a45fba8d8885ed06abbe8","cityName":"阳江市","cityCode":null,"districtId":"8ea1f4cdb5754e7aa21e94aad5411cd8","districtName":"江城区"},{"id":"9d7e61d2face46879483f8449f42b441","name":"长隆旅游度假区","description":"","aLevel":"5A","longitude":113.324485,"latitude":23.002105,"cityId":"ab3932b6a3a242389ddcdfaa26e18e98","cityName":"广州市","cityCode":null,"districtId":"635f096cdba440679dcce422b38920d9","districtName":"番禺区"},{"id":"2ca4267e5d634f5a93b3fb3f2fa8ff27","name":"连州地下河旅游景区","description":"","aLevel":"5A","longitude":112.324018,"latitude":25.004246,"cityId":"ac48709e1885458b8fa2afcec23825c3","cityName":"清远市","cityCode":null,"districtId":"14f9b223ffb74739b6168d26ae524a85","districtName":"连州市"},{"id":"00acd0b104bb4211a3b3fc3b3df0ba97","name":"惠州西湖旅游景区","description":"","aLevel":"5A","longitude":114.396898,"latitude":23.096233,"cityId":"0fc52f8348e942a19b9b06bc7b549d00","cityName":"惠州市","cityCode":null,"districtId":"2747fa2fab3c4fd8b0d0d2262ad74743","districtName":"惠城区"}]},{"id":"3c105c03ed7f4d83a2762cc7b9addcba","name":"吉林省","description":null,"longitude":125.325802,"latitude":43.896942,"scenicSpots":[{"id":"5c7f9f40a6c3418aac5349053022e2c8","name":"世界雕塑公园旅游景区","description":"","aLevel":"5A","longitude":125.326928,"latitude":43.826333,"cityId":"e6cc702a5d774f788e848142b3cf2124","cityName":"长春市","cityCode":null,"districtId":"2f7bf2e62a8f4053b6343e469a045736","districtName":"南关区"},{"id":"24062867d1c442e3b3024f02a65d3a08","name":"长白山景区","description":"","aLevel":"5A","longitude":127.785391,"latitude":42.047959,"cityId":"df06f9dcf6a5458e8ccfc04d5cf3135e","cityName":"白山市","cityCode":null,"districtId":"7d82f85c19ae4887bca04bde838d3217","districtName":"抚松县"},{"id":"f5ad5ded469f475eaa0c645aacf0b222","name":"六鼎山文化旅游区","description":"","aLevel":"5A","longitude":128.241338,"latitude":43.316498,"cityId":"d9735879d1854899864d8424e957d89c","cityName":"延边朝鲜族自治州","cityCode":null,"districtId":"4995781bb10549118df9a6e1f1e035a5","districtName":"敦化市"},{"id":"21604bf2cff442429a9187290f69b8fe","name":"高句丽文物古迹旅游景区","description":"","aLevel":"5A","longitude":126.152487,"latitude":41.164141,"cityId":"deee5e88c5e24639bab38b5cba55626c","cityName":"通化市","cityCode":null,"districtId":"49ebd690e3be415c853c34eb8e8ac657","districtName":"集安市"},{"id":"ab3cb85b89eb43638bb997e36ff0050b","name":"长影世纪城旅游区","description":"","aLevel":"5A","longitude":125.446222,"latitude":43.772507,"cityId":"e6cc702a5d774f788e848142b3cf2124","cityName":"长春市","cityCode":null,"districtId":"2f7bf2e62a8f4053b6343e469a045736","districtName":"南关区"},{"id":"53dfa115c8154d2a96f6c691fcdccddd","name":"前郭县查干湖旅游度假区","description":null,"aLevel":"5A","longitude":124.432804,"latitude":45.197899,"cityId":"14e062d13af24e46a6272ea80f5f789c","cityName":"松原市","cityCode":null,"districtId":"ffb8fdb5d1ab4b8d838fb7a13a9b61e4","districtName":"前郭尔罗斯蒙古族自治县"},{"id":"a3e8ef41947f492ea7f8c9dc778fc899","name":"伪满皇宫博物院","description":"","aLevel":"5A","longitude":125.348749,"latitude":43.905618,"cityId":"e6cc702a5d774f788e848142b3cf2124","cityName":"长春市","cityCode":null,"districtId":"66a9cd5f0b544b788fe3ed296396aeec","districtName":"宽城区"},{"id":"f00571c91f6047619a83db951ba18c7a","name":"嫩江湾景区","description":null,"aLevel":"5A","longitude":124.286753,"latitude":45.537666,"cityId":"36b7396ab1da4c7abefbf62a07962370","cityName":"白城市","cityCode":null,"districtId":"fe98ad0a0cfd476aa20e48800e1d9e92","districtName":"大安市"},{"id":"021791388de144c5af60e8d5eb7a8135","name":"吉林长春净月潭景区","description":"","aLevel":"5A","longitude":125.455842,"latitude":43.795226,"cityId":"e6cc702a5d774f788e848142b3cf2124","cityName":"长春市","cityCode":null,"districtId":"2f7bf2e62a8f4053b6343e469a045736","districtName":"南关区"}]},{"id":"40205b0d4c2d44be8d832fb120c05840","name":"宁夏回族自治区","description":null,"longitude":106.258889,"latitude":38.472273,"scenicSpots":[{"id":"126456e92d094923a52a119d61f4b654","name":"沙湖旅游景区","description":"","aLevel":"5A","longitude":106.383987,"latitude":38.828369,"cityId":"e86a05e3e77e42ccbdd324103cf270aa","cityName":"石嘴山市","cityCode":null,"districtId":"b616838412644e2ab5d9ac96143c3e66","districtName":"平罗县"},{"id":"eec1a408dfdb499abadd27508f55386d","name":"宁夏银川镇北堡西部影视城","description":"","aLevel":"5A","longitude":106.07199,"latitude":38.615408,"cityId":"c4c17c8795d44e5faf438369768c37bc","cityName":"银川市","cityCode":null,"districtId":"1987efecebbd4642942f8587d7892757","districtName":"西夏区"},{"id":"accfbdfacb1d4095801bb6d195572306","name":"宁夏六盘山红军长征景区","description":null,"aLevel":"5A","longitude":106.194021,"latitude":35.667211,"cityId":"5640216b05dc40afa8763346a2eaeb0d","cityName":"固原市","cityCode":null,"districtId":"69031695f10045319cffa2216e1530a6","districtName":"隆德县"},{"id":"459b92bcff1c4108aa91d842cbe56f8c","name":"灵武水洞沟旅游区","description":"","aLevel":"5A","longitude":106.51728,"latitude":38.289542,"cityId":"c4c17c8795d44e5faf438369768c37bc","cityName":"银川市","cityCode":null,"districtId":"2a43c2be020c44959968f186ac74d2cd","districtName":"灵武市"},{"id":"db8ed43d39034c9dba6cf3ddb0991eb6","name":"沙坡头旅游景区","description":"","aLevel":"5A","longitude":105.002033,"latitude":37.474597,"cityId":"a9c772fc8abb490e9eabc7ef0cff121f","cityName":"中卫市","cityCode":null,"districtId":"007f7b9230b54e899005d66c3263b493","districtName":"沙坡头区"},{"id":"eae91cf9826e46348647fd58ceb31974","name":"青铜峡黄河大峡谷旅游区","description":null,"aLevel":"5A","longitude":105.991775,"latitude":37.883645,"cityId":"6508d5a9405045eb886f3708c35d2998","cityName":"吴忠市","cityCode":null,"districtId":"5991e13c14dc4da396c469568ac3f3ec","districtName":"青铜峡市"}]},{"id":"102364ea4775454781a63a8940cdda62","name":"湖南省","description":null,"longitude":112.982951,"latitude":28.116007,"scenicSpots":[{"id":"fcbe8431582a4d55b3ca01b55f258a83","name":"岳阳楼—君山岛景区","description":"","aLevel":"5A","longitude":113.093573,"latitude":29.37781,"cityId":"4ed701af5b8142bd82282be573ad87f3","cityName":"岳阳市","cityCode":null,"districtId":"2f922e8327664afe84330ae25d02a481","districtName":"岳阳楼区"},{"id":"a7a7aad97f35426c85e60e55306e5a12","name":"花明楼景区","description":"","aLevel":"5A","longitude":112.646403,"latitude":28.035398,"cityId":"454e7d59ea074b6eb62968423fe58309","cityName":"长沙市","cityCode":null,"districtId":"3e1a5f74cd2b4daa8865b5f72a9cc068","districtName":"宁乡市"},{"id":"93e096039bdb46e583b51e2aadff615c","name":"张家界武陵源—天门山旅游区","description":"","aLevel":"5A","longitude":110.483873,"latitude":29.112216,"cityId":"fb89a235da064210b76a4a2f1ca7353e","cityName":"张家界市","cityCode":null,"districtId":"6043ec90be1548df92f8b35d7c2837a7","districtName":"永定区"},{"id":"ed97c39e29e54368b74030b31e198fc9","name":"矮寨·十八洞·德夯大峡谷景区","description":"","aLevel":"5A","longitude":109.583012,"latitude":28.338636,"cityId":"503741259f2343c8a7cd2738545eaa78","cityName":"湘西土家族苗族自治州","cityCode":null,"districtId":"af574a1c5d5d4b3a8605650a0e1b3d56","districtName":"吉首市"},{"id":"1a47e4efaf97480684e83272da2bf458","name":"炎帝陵景区","description":"","aLevel":"5A","longitude":113.670733,"latitude":26.419337,"cityId":"9b8549ac570b48c6816e697c1f4482fc","cityName":"株洲市","cityCode":null,"districtId":"4303046c4a8342e2b2e948dbd859f62c","districtName":"炎陵县"},{"id":"80d2001d58d345b19bc54f2b4597a64b","name":"桃花源旅游区","description":"","aLevel":"5A","longitude":111.437239,"latitude":28.777129,"cityId":"04181cc4265c484bb5be5bbf611bc861","cityName":"常德市","cityCode":null,"districtId":"d4630d99aab94bdb9df3e1a597de1cba","districtName":"桃源县"},{"id":"0e7fd8dbb4764c94826e618f0adc6893","name":"凤凰古城旅游区","description":null,"aLevel":"5A","longitude":109.606267,"latitude":27.948931,"cityId":"503741259f2343c8a7cd2738545eaa78","cityName":"湘西土家族苗族自治州","cityCode":null,"districtId":"bfddc761e5b14f208962b227761076cb","districtName":"凤凰县"},{"id":"84b54e8d651b4947bb116e950d2e6189","name":"崀山景区","description":"","aLevel":"5A","longitude":110.788434,"latitude":26.32467,"cityId":"2bdde966275b4b949be99f2ab8103863","cityName":"邵阳市","cityCode":null,"districtId":"8b41b753d41b4239b8e8e18ad8e602d1","districtName":"新宁县"},{"id":"48fe7a4e60f648f18a9681d82b33f902","name":"岳麓山·橘子洲旅游区","description":"","aLevel":"5A","longitude":112.960976,"latitude":28.184095,"cityId":"454e7d59ea074b6eb62968423fe58309","cityName":"长沙市","cityCode":null,"districtId":"3a423afa521048f28c4236d06ba011b5","districtName":"岳麓区"},{"id":"48cf09998d164d29bd46e1584df38863","name":"韶山旅游区","description":"","aLevel":"5A","longitude":112.525364,"latitude":27.914796,"cityId":"ff27ce46cefe4093a4cb5549863985bc","cityName":"湘潭市","cityCode":null,"districtId":"bf39a97d7ccc45159ea40657edbcd640","districtName":"韶山市"},{"id":"2d26d07f67994e61afd5e4c284ba5bb0","name":"东江湖旅游区","description":"","aLevel":"5A","longitude":113.264152,"latitude":25.934424,"cityId":"be117db13b9944d7a23f216c2683df31","cityName":"郴州市","cityCode":null,"districtId":"4b7b90c3dffd465e970677f7713e25d3","districtName":"资兴市"},{"id":"f3fd3e45bbf44d58a02ae76e7321ad71","name":"南岳衡山旅游区","description":"","aLevel":"5A","longitude":112.710479,"latitude":27.263946,"cityId":"28fc22d57f6b4a829fbb64ab6ed53660","cityName":"衡阳市","cityCode":null,"districtId":"ca5a2bed72ca42fa9a43b9a739dc8ab9","districtName":"南岳区"}]},{"id":"42c263deabdd4d2fbc204049565bdc88","name":"福建省","description":null,"longitude":119.296194,"latitude":26.101082,"scenicSpots":[{"id":"e6ad2b11d92f44b1920c2f71c017d5a3","name":"白水洋-鸳鸯溪旅游区","description":"","aLevel":"5A","longitude":119.047539,"latitude":27.047204,"cityId":"ed5ef817f0cd468fbab240e1a9531a86","cityName":"宁德市","cityCode":null,"districtId":"2d0c543cfacc42319b716fbda6017931","districtName":"屏南县"},{"id":"d566aaf3696b4f71bc5a3348b52b6bff","name":"冠豸山风景区","description":null,"aLevel":"5A","longitude":116.785266,"latitude":25.701167,"cityId":"fd5c5820d15b4a78a96e14f1eb4fdda0","cityName":"龙岩市","cityCode":null,"districtId":"aaa09ff06a0f4beea1cf492737c4f8c1","districtName":"连城县"},{"id":"66d697301015462caa43451f390fef82","name":"武夷山风景名胜区","description":"","aLevel":"5A","longitude":117.959681,"latitude":27.656446,"cityId":"bdb1517adcd241e7a6c4fef18cdfa1dc","cityName":"南平市","cityCode":null,"districtId":"d99d41ab49e64ed892a3e6ed0faed226","districtName":"武夷山市"},{"id":"be52cf1a7f434b52b08549cc0eb866bb","name":"鼓浪屿风景名胜区","description":"","aLevel":"5A","longitude":118.067042,"latitude":24.444673,"cityId":"319519fcc5324d3b87fbd46549e55395","cityName":"厦门市","cityCode":null,"districtId":"56b96025b0a7477f9dd6d73acbb400fb","districtName":"思明区"},{"id":"c77364a2b6704b90b0417d8b48b8f75f","name":"泰宁风景旅游区","description":"","aLevel":"5A","longitude":117.176871,"latitude":26.901351,"cityId":"801fbf23140d450eb90bcc7c6ba3fef4","cityName":"三明市","cityCode":null,"districtId":"de76fc6eddff4544b4a70db1e84c81be","districtName":"泰宁县"},{"id":"29f9c5323ff7420eafe18a16a12525ff","name":"园林植物园","description":null,"aLevel":"5A","longitude":118.09417,"latitude":24.453936,"cityId":"319519fcc5324d3b87fbd46549e55395","cityName":"厦门市","cityCode":null,"districtId":"56b96025b0a7477f9dd6d73acbb400fb","districtName":"思明区"},{"id":"7e807f645ea74ba9a510c01b7ba33381","name":"古田旅游区","description":"","aLevel":"5A","longitude":116.860179,"latitude":25.270466,"cityId":"fd5c5820d15b4a78a96e14f1eb4fdda0","cityName":"龙岩市","cityCode":null,"districtId":"b103fdc121e34f749a4a7f3585582a04","districtName":"上杭县"},{"id":"681fa94a21ac4a018b77c42b53346d81","name":"福鼎太姥山旅游区","description":"","aLevel":"5A","longitude":120.201962,"latitude":27.120356,"cityId":"ed5ef817f0cd468fbab240e1a9531a86","cityName":"宁德市","cityCode":null,"districtId":"e4b32a1ec02f47bd8533f01aba73033f","districtName":"福鼎市"},{"id":"1ab372b284d34d99bd9ac703ea2c51ac","name":"土楼（永定·南靖）旅游","description":"","aLevel":"5A","longitude":117.083559,"latitude":24.629614,"cityId":"590ea07b561d4567bda628c6432c061d","cityName":"漳州市","cityCode":null,"districtId":"d09012da808b48fda5fe4b0965958df8","districtName":"南靖县"},{"id":"c7970ce32f544d83a4c1daa2191b314b","name":"三坊七巷景区","description":"","aLevel":"5A","longitude":119.2973,"latitude":26.083639,"cityId":"80352c2a60774a70a4fbe87b012e868f","cityName":"福州市","cityCode":null,"districtId":"84dd67b502894660ad243c96184627a4","districtName":"鼓楼区"},{"id":"c46e415007d74f1d9bb4e6d89cab017d","name":"湄洲岛妈祖文化旅游区","description":"","aLevel":"5A","longitude":119.128245,"latitude":25.063739,"cityId":"e6dc08ed9abd489ca87f1119ca55e365","cityName":"莆田市","cityCode":null,"districtId":"20383807974041e59d56d5f51ebfff2d","districtName":"秀屿区"},{"id":"192e58d23dd645149a1cf314fa44d9f3","name":"清源山景区","description":"","aLevel":"5A","longitude":118.610867,"latitude":24.942572,"cityId":"eef1665bfeb64d4aae8d457045e43420","cityName":"泉州市","cityCode":null,"districtId":"848fa6e46e1d4d1284ee05d56304de87","districtName":"丰泽区"}]},{"id":"b8baff6039894dbd85b241c6efc6769e","name":"黑龙江省","description":null,"longitude":126.661998,"latitude":45.742253,"scenicSpots":[{"id":"1e05da4026c24441bdf310f133da3dad","name":"虎头旅游景区","description":"","aLevel":"5A","longitude":133.660594,"latitude":46.000077,"cityId":"1331a9ed0c0e40c3a3884c3f02e54001","cityName":"鸡西市","cityCode":null,"districtId":"d5c79d3b847b4d77be590cb2e2ae6c66","districtName":"虎林市"},{"id":"8fba360d86b54b21a285172c1381c4de","name":"汤旺河林海奇石景区","description":"","aLevel":"5A","longitude":129.446123,"latitude":48.445762,"cityId":"8f6277af6f59432c87cabcf8a77afbfa","cityName":"伊春市","cityCode":null,"districtId":"bb15aeee399f4650a1f455b8cfaa2137","districtName":"汤旺县"},{"id":"01081e28cb3e4cc2b63920f31e8abe1b","name":"漠河北极村旅游区","description":"","aLevel":"5A","longitude":122.360632,"latitude":53.47845,"cityId":"71d806f1ade14cafb2d5c943f781b8f3","cityName":"大兴安岭地区","cityCode":null,"districtId":"af4448d30e0a47bbb48026db148d9441","districtName":"漠河市"},{"id":"46cfbcacd32743379a5f25c78681954f","name":"黑龙江牡丹江镜泊湖景区","description":"","aLevel":"5A","longitude":128.953689,"latitude":44.06302,"cityId":"4ca126f3a3e94f1899dd67588e5c00f9","cityName":"牡丹江市","cityCode":null,"districtId":"83315f07c0fb4d14a2838442e2d2bdf8","districtName":"宁安市"},{"id":"de488adff45d4f56a5403653985f1508","name":"黑龙江黑河五大连池景区","description":"","aLevel":"5A","longitude":126.263187,"latitude":48.705589,"cityId":"4e34d70ead7e485d9ee9e591d471e6be","cityName":"黑河市","cityCode":null,"districtId":"b4f08303c12641169a5aaa974e4976fc","districtName":"五大连池市"},{"id":"b7c221d8efb146559bb94ae97c6a7c91","name":"太阳岛景区","description":"","aLevel":"5A","longitude":126.597852,"latitude":45.79155,"cityId":"302f46de4f2e40fd9b53203767d9792b","cityName":"哈尔滨市","cityCode":null,"districtId":"347a4e674ba4476094e887d1ee766892","districtName":"松北区"},{"id":"44a7a405d16348afbe74c629bfd06dde","name":"扎龙生态旅游区","description":null,"aLevel":"5A","longitude":0,"latitude":0,"cityId":"5e17857070834d3e9a7592fd180d0ce3","cityName":"齐齐哈尔市","cityCode":null,"districtId":"5798b0dcb06f4cc2bee0a667a87cf543","districtName":"铁锋区"}]},{"id":"1a704bc1b97141d5ab48451b55f4ce97","name":"天津市","description":null,"longitude":117.201509,"latitude":39.085318,"scenicSpots":[{"id":"38d43c0950ba4b02b893389d00525d64","name":"天津盘山风景名胜区","description":"","aLevel":"5A","longitude":117.282351,"latitude":40.097171,"cityId":"d5063ad8b9a541cab8fb1d0cb5d1ee89","cityName":"天津城区","cityCode":null,"districtId":"b27932733cdb4c23847eab6d08bef6fd","districtName":"蓟州区"},{"id":"186f43ccf2f44557bdb7a323bb22407b","name":"天津古文化街旅游区（津门故里）","description":"","aLevel":"5A","longitude":117.191614,"latitude":39.143036,"cityId":"d5063ad8b9a541cab8fb1d0cb5d1ee89","cityName":"天津城区","cityCode":null,"districtId":"e387087f315046fc9f549b8d73219f56","districtName":"南开区"}]},{"id":"cc69e36fa1974abe845d48cc8c7ef746","name":"青海省","description":null,"longitude":101.780482,"latitude":36.622538,"scenicSpots":[{"id":"7b29fc478dab425286641649466cf5ba","name":"互助土族故土园景区","description":"","aLevel":"5A","longitude":101.93805,"latitude":36.834985,"cityId":"ceae0f4d2ba9413dba517197e7bd43ae","cityName":"海东市","cityCode":null,"districtId":"15bd5a19b06047ac9b874cc6ca0f5348","districtName":"互助土族自治县"},{"id":"ed2f90d0b81548c29fae2a1eaedc94eb","name":"青海湖景区","description":"","aLevel":"5A","longitude":100.228654,"latitude":36.894097,"cityId":"d85a374f10ee4f6894410e8b48728fbd","cityName":"海北藏族自治州","cityCode":null,"districtId":"09562ad80d344be389936276356ce70f","districtName":"刚察县"},{"id":"c27115cdc1544435b52bab3f4683842b","name":"塔尔寺景区","description":"","aLevel":"5A","longitude":101.567705,"latitude":36.487421,"cityId":"f124d728ddad43f5859a0ca3342b35ca","cityName":"西宁市","cityCode":null,"districtId":"b0419aa96d7d424f848fb16acbd3e7bb","districtName":"湟中区"},{"id":"453fd2763baf4f909b6ef9c62a72d839","name":"海北州阿咪东索景区","description":"","aLevel":"5A","longitude":100.249545,"latitude":38.113412,"cityId":"d85a374f10ee4f6894410e8b48728fbd","cityName":"海北藏族自治州","cityCode":null,"districtId":"054e62b5f962409f9b0042a300b4016e","districtName":"祁连县"}]},{"id":"4a24b452cd8e492388f04bd35c628823","name":"陕西省","description":null,"longitude":108.953939,"latitude":34.266611,"scenicSpots":[{"id":"19122ff627e745c4bbfb35586e6780f0","name":"延安革命纪念地景区","description":"","aLevel":"5A","longitude":109.477563,"latitude":36.608804,"cityId":"29d6377a2f834b93971612c70dab8817","cityName":"延安市","cityCode":null,"districtId":"c24ee61c4fc74d77977057c4006c1c11","districtName":"宝塔区"},{"id":"22c825013b444469a040361c68c9dd72","name":"华清池景区","description":"","aLevel":"5A","longitude":109.215762,"latitude":34.356672,"cityId":"1feea0751262413fb6cd9d914e723f8b","cityName":"西安市","cityCode":null,"districtId":"56be9c9d6acd4b7aae44f56195079082","districtName":"临潼区"},{"id":"d56ee4d5236e4be3abbc6343619acfbe","name":"大明宫旅游景区","description":"","aLevel":"5A","longitude":108.963278,"latitude":34.293062,"cityId":"1feea0751262413fb6cd9d914e723f8b","cityName":"西安市","cityCode":null,"districtId":"e248d72123064aaca8ba2392e75b137d","districtName":"未央区"},{"id":"506a0e6bfe6a4cbeb3106bc2857bf340","name":"金丝峡景区","description":"","aLevel":"5A","longitude":110.565197,"latitude":33.36724,"cityId":"2870b69d51ea4510a919a26171a0df40","cityName":"商洛市","cityCode":null,"districtId":"bacefe21b473453994941da20f5047b8","districtName":"商南县"},{"id":"1c61353f2cba459d93bb80f654f2c490","name":"黄河乾坤湾景区","description":null,"aLevel":"5A","longitude":110.40226,"latitude":36.707002,"cityId":"29d6377a2f834b93971612c70dab8817","cityName":"延安市","cityCode":null,"districtId":"b64534d9f7ac4ed9ae2fd5116500c37c","districtName":"延川县"},{"id":"e50b739be32f4228985f8b6f580690f2","name":"黄河壶口瀑布景区","description":null,"aLevel":"5A","longitude":110.448663,"latitude":36.14189,"cityId":"29d6377a2f834b93971612c70dab8817","cityName":"延安市","cityCode":null,"districtId":"fc145365ba854c79a79afd102c802b95","districtName":"宜川县"},{"id":"56a02004a63b42dda09b8e86ddd7ff5a","name":"秦始皇兵马俑博物馆","description":"","aLevel":"5A","longitude":109.28196,"latitude":34.386214,"cityId":"1feea0751262413fb6cd9d914e723f8b","cityName":"西安市","cityCode":null,"districtId":"56be9c9d6acd4b7aae44f56195079082","districtName":"临潼区"},{"id":"df0a5e3ff6c04786852b95449458c024","name":"陕西渭南华山景区","description":"","aLevel":"5A","longitude":110.084789,"latitude":34.477861,"cityId":"54d0f6c71daa42d2b87beca49a21bf27","cityName":"渭南市","cityCode":null,"districtId":"f01b261e1db247deb5287ac0038726fe","districtName":"华阴市"},{"id":"520b7a43a64a446fbb37a88b64072cf5","name":"城墙·碑林历史文化景区","description":"","aLevel":"5A","longitude":108.940681,"latitude":34.256727,"cityId":"1feea0751262413fb6cd9d914e723f8b","cityName":"西安市","cityCode":null,"districtId":"240093a1e61845458ac8bd52d5ef93e0","districtName":"碑林区"},{"id":"cd65a39a0d864d59bf06bab90fbc1581","name":"太白山旅游景区","description":"","aLevel":"5A","longitude":107.878199,"latitude":34.047363,"cityId":"38646dce8b7e4e2cb6b89490cbb9bf86","cityName":"宝鸡市","cityCode":null,"districtId":"d45f42f1cdea440d8433c600c07f48ca","districtName":"眉县"},{"id":"5797ad8b29d9425fbe54d0aa3598674b","name":"陕西西安大雁塔·大唐芙蓉园景区","description":"","aLevel":"5A","longitude":108.97436,"latitude":34.212717,"cityId":"1feea0751262413fb6cd9d914e723f8b","cityName":"西安市","cityCode":null,"districtId":"2acf1acd91a146589f9d259ca0000d07","districtName":"雁塔区"},{"id":"d8853aa267ef42ea9fafd2c279975b9c","name":"法门寺佛文化景区","description":"","aLevel":"5A","longitude":107.903411,"latitude":34.438774,"cityId":"38646dce8b7e4e2cb6b89490cbb9bf86","cityName":"宝鸡市","cityCode":null,"districtId":"f1826e6e10f94ec18ab9cfe845b0ccbf","districtName":"扶风县"},{"id":"ec22d5cda1b34d2ca573de74d0a3a58f","name":"乾陵景区","description":null,"aLevel":"5A","longitude":108.219484,"latitude":34.572302,"cityId":"1a7687420ea64a428b4564e4c9ef34a0","cityName":"咸阳市","cityCode":null,"districtId":"c9a90f1a33324257a1663ec50dac032f","districtName":"乾县"},{"id":"7ea5a48977c64037a11ff556b15950d2","name":"黄帝陵景区","description":"","aLevel":"5A","longitude":109.270433,"latitude":35.586331,"cityId":"29d6377a2f834b93971612c70dab8817","cityName":"延安市","cityCode":null,"districtId":"ead829ec791b42f2becb4446adc2f6dd","districtName":"黄陵县"}]},{"id":"ac00931f2cb54a288c854caeee5876d3","name":"四川省","description":null,"longitude":104.076452,"latitude":30.651696,"scenicSpots":[{"id":"f7af5a9497d34e3a8e01215cc15a57bf","name":"光雾山旅游景区","description":"","aLevel":"5A","longitude":106.782468,"latitude":32.68029,"cityId":"27d3b82ae1a94a47ac5830a1c73d118e","cityName":"巴中市","cityCode":null,"districtId":"9d8681157e3c4cfaad24be65f91e0967","districtName":"南江县"},{"id":"02540f48ad4b471bb6eb2334cebecf28","name":"安仁古镇景区","description":"","aLevel":"5A","longitude":103.62403,"latitude":30.505134,"cityId":"92cb3ee8a2b542a9998e82005cfdcce9","cityName":"成都市","cityCode":null,"districtId":"9d3e6d35c5534cb990428c8d7efa399d","districtName":"大邑县"},{"id":"c9db6ffb1946475eab86237d2df69487","name":"四姑娘山景区","description":null,"aLevel":"5A","longitude":102.899998,"latitude":31.1,"cityId":"61dda956c928427e8b7de3b85fdc20d8","cityName":"阿坝藏族羌族自治州","cityCode":null,"districtId":"c1dc5400b65149f48db495391c790ab1","districtName":"小金县"},{"id":"703fee18caad4911b51026a402393e3c","name":"甘孜州海螺沟景区","description":"","aLevel":"5A","longitude":102.123621,"latitude":29.642632,"cityId":"71cefc7ddbe84e9b868e6dc7c36c4f04","cityName":"甘孜藏族自治州","cityCode":null,"districtId":"df4e790cf5ee40c893ce320c4bb16a98","districtName":"泸定县"},{"id":"02a389eaed60479d91882e747d0656e2","name":"仪陇朱德故里景区","description":"","aLevel":"5A","longitude":106.596316,"latitude":31.459711,"cityId":"bb49968bf1ba4a5fa5fb3252f3f9217c","cityName":"南充市","cityCode":null,"districtId":"a337443ead064368b2c0b41291d72d71","districtName":"仪陇县"},{"id":"b5cf06a2cf0647ea829236b48539415d","name":"青城山--都江堰旅游景区","description":"","aLevel":"5A","longitude":103.610146,"latitude":31.003303,"cityId":"92cb3ee8a2b542a9998e82005cfdcce9","cityName":"成都市","cityCode":null,"districtId":"0a8cbf4066ea401080d4f357aeeceeb2","districtName":"都江堰市"},{"id":"9f648df1fc9b4a72a1d255e177844d64","name":"峨眉山景区","description":"","aLevel":"5A","longitude":103.338484,"latitude":29.547163,"cityId":"4d941d71ee7c4c3897d69dce4f6264f8","cityName":"乐山市","cityCode":null,"districtId":"6a6a541d344040f68c2d81842d77dbe5","districtName":"峨眉山市"},{"id":"efcc789724fc4378a94f605c53dfc41f","name":"北川羌城旅游区","description":"","aLevel":"5A","longitude":104.452488,"latitude":31.808881,"cityId":"08cb9ddba5324cfdb6e010fc224eb68c","cityName":"绵阳市","cityCode":null,"districtId":"8314652d59554ad59d68a7a2ed20b33c","districtName":"北川羌族自治县"},{"id":"e482ba9df0c74535bff08531d1ecc1af","name":"碧峰峡旅游景区","description":"","aLevel":"5A","longitude":103.016972,"latitude":30.105693,"cityId":"ab177dec64ba4c32b09a3699319f5110","cityName":"雅安市","cityCode":null,"districtId":"aa6641d02f1b4f6c9a8ad2f1b1da7017","districtName":"雨城区"},{"id":"1beb883254ba4fbd94629fd334d21a02","name":"甘孜州稻城亚丁旅游景区","description":"","aLevel":"5A","longitude":100.289484,"latitude":28.458172,"cityId":"71cefc7ddbe84e9b868e6dc7c36c4f04","cityName":"甘孜藏族自治州","cityCode":null,"districtId":"372816a50f3e43c59335e95cbd1b2fee","districtName":"稻城县"},{"id":"28696049833049359e39a0817fdd303d","name":"剑门蜀道剑门关旅游区","description":"","aLevel":"5A","longitude":105.573731,"latitude":32.22075,"cityId":"72adf44bd00f4cc5a0457cf330bec6c2","cityName":"广元市","cityCode":null,"districtId":"067bfb972cc940179cb952d8028c11c9","districtName":"剑阁县"},{"id":"8aea9e6697294a43bea1ae0dc1580530","name":"阿坝州汶川特别旅游区","description":"","aLevel":"5A","longitude":103.375884,"latitude":30.892257,"cityId":"61dda956c928427e8b7de3b85fdc20d8","cityName":"阿坝藏族羌族自治州","cityCode":null,"districtId":"4924ddc95d034b0f8e35712f93c2d8ba","districtName":"汶川县"},{"id":"05501b3c3c054e7a8443afd99de2fe63","name":"阆中古城旅游区","description":"","aLevel":"5A","longitude":105.969328,"latitude":31.574237,"cityId":"bb49968bf1ba4a5fa5fb3252f3f9217c","cityName":"南充市","cityCode":null,"districtId":"23e2b445d6a14b1086999a8d4e66bd70","districtName":"阆中市"},{"id":"b7664daf94ba46178681cfdaa29c572e","name":"邓小平故里旅游区","description":"","aLevel":"5A","longitude":106.639244,"latitude":30.523591,"cityId":"92a97d7f5bea4fd8a9c50b1be81b6aa5","cityName":"广安市","cityCode":null,"districtId":"5c386a2134ff490c9b49f847e3999fbe","districtName":"广安区"},{"id":"36032600d8ae4e72a270ddcf4536893b","name":"阿坝州黄龙景区","description":"","aLevel":"5A","longitude":103.832708,"latitude":32.743106,"cityId":"61dda956c928427e8b7de3b85fdc20d8","cityName":"阿坝藏族羌族自治州","cityCode":null,"districtId":"d59390c484f94e028c0fb4720cec090a","districtName":"松潘县"},{"id":"469cdbf31fe9422ca51ce4cd896700b9","name":"天台山景区","description":null,"aLevel":"5A","longitude":103.146173,"latitude":30.285168,"cityId":"92cb3ee8a2b542a9998e82005cfdcce9","cityName":"成都市","cityCode":null,"districtId":"5f290b16a3c746faa33532b31809f270","districtName":"邛崃市"},{"id":"aea9fb7631674bf5afbdef4c9599ddbe","name":"九寨沟旅游景区","description":"","aLevel":"5A","longitude":104.2426,"latitude":33.252008,"cityId":"61dda956c928427e8b7de3b85fdc20d8","cityName":"阿坝藏族羌族自治州","cityCode":null,"districtId":"1a3deafdefcb4af8ba9b63ec8fdc5d3d","districtName":"九寨沟县"},{"id":"8fbde26d15fc4bb4b6edfb688f2bd473","name":"乐山大佛景区","description":"","aLevel":"5A","longitude":103.777691,"latitude":29.555043,"cityId":"4d941d71ee7c4c3897d69dce4f6264f8","cityName":"乐山市","cityCode":null,"districtId":"36a9181fff774f90bc83e7e013d02e4a","districtName":"市中区"}]},{"id":"65c39c3c08b543c38421562f1d738bce","name":"贵州省","description":null,"longitude":106.705251,"latitude":26.600328,"scenicSpots":[{"id":"47e3ebce41ea40c9958a087323c3f453","name":"黔东南州镇远古城旅游景区","description":"","aLevel":"5A","longitude":108.421039,"latitude":27.047373,"cityId":"68637d029d974946bf7d4cb41b3fc126","cityName":"黔东南苗族侗族自治州","cityCode":null,"districtId":"816237fd85b444739addc72a19b10697","districtName":"镇远县"},{"id":"dd75b3492ae847529c32384e9a58c89f","name":"梵净山旅游区","description":"","aLevel":"5A","longitude":108.849265,"latitude":27.691649,"cityId":"85619c270d234e1bac3aed6530f5127e","cityName":"铜仁市","cityCode":null,"districtId":"3bec6107592743c8b850f407d62824d3","districtName":"江口县"},{"id":"53f88883b846405896088691fbd3e303","name":"赤水丹霞旅游区","description":"","aLevel":"5A","longitude":105.948589,"latitude":28.399094,"cityId":"59e4be44ed7642cdbc0f6b4802c092f2","cityName":"遵义市","cityCode":null,"districtId":"30cccf9d03f045c08c1ad1bbb85f5051","districtName":"赤水市"},{"id":"ea97173f48c0406d94cea22e6c31cca7","name":"黄果树大瀑布景区","description":"","aLevel":"5A","longitude":105.669054,"latitude":25.989253,"cityId":"99fce472f6fd4536a876a88f4853f774","cityName":"安顺市","cityCode":null,"districtId":"3db1b13eedd3452d98aa0e42000aa78f","districtName":"镇宁布依族苗族自治县"},{"id":"3e4b3ea12010430092e1a9984fd6355c","name":"龙宫景区","description":"","aLevel":"5A","longitude":105.885762,"latitude":26.106874,"cityId":"99fce472f6fd4536a876a88f4853f774","cityName":"安顺市","cityCode":null,"districtId":"5f1938f252f047f7940467547d70cb6a","districtName":"西秀区"},{"id":"17af772eac6548df88e9ae6509f62093","name":"黔西南州兴义万峰林景区","description":null,"aLevel":"5A","longitude":104.924648,"latitude":25.00961,"cityId":"4c6b7a59aa77444fa64c4b48395abb55","cityName":"黔西南布依族苗族自治州","cityCode":null,"districtId":"120ca8cb5b594dd5a254f769f12053c9","districtName":"兴义市"},{"id":"e9bb02c4483340e692cbce942d5ce317","name":"黔南州荔波樟江景区","description":"","aLevel":"5A","longitude":107.903717,"latitude":25.429451,"cityId":"2b426a8b05674d69a17ee3349ed3ecf7","cityName":"黔南布依族苗族自治州","cityCode":null,"districtId":"8c63d0f7757848b8acb0414d438fab63","districtName":"荔波县"},{"id":"76c5ea5d0f4a439bb8c1d350247e2357","name":"花溪青岩古镇景区","description":"","aLevel":"5A","longitude":106.687006,"latitude":26.335051,"cityId":"07c2ae3b49fc4d6a9dad83ae828e1751","cityName":"贵阳市","cityCode":null,"districtId":"49257929bcf34b99ade416533402f852","districtName":"花溪区"},{"id":"c1928981af95417aac37dfc01df18c9c","name":"百里杜鹃景区","description":"","aLevel":"5A","longitude":105.291544,"latitude":27.283615,"cityId":"fd828228c31644d2b2ed4ab859085f51","cityName":"毕节市","cityCode":null,"districtId":"0e1ab69c07034b1997dfc5bc80d543dc","districtName":"七星关区"},{"id":"162c0d492e9b4882afb7e1f5ec6fa0bc","name":"织金洞景区","description":"","aLevel":"5A","longitude":105.883673,"latitude":26.772214,"cityId":"fd828228c31644d2b2ed4ab859085f51","cityName":"毕节市","cityCode":null,"districtId":"d4c9841133064c82b4dbce5df59bdb58","districtName":"织金县"}]},{"id":"babb30a3a18340cb9cbc5837775065fd","name":"山东省","description":null,"longitude":117.020725,"latitude":36.670201,"scenicSpots":[{"id":"4a25314ad45d490795d7128f3a1adbd0","name":"蓬莱阁旅游区(三仙山-八仙过海)","description":"","aLevel":"5A","longitude":120.760462,"latitude":37.819201,"cityId":"f60b28e12bab40baa5f9558e7169a199","cityName":"烟台市","cityCode":null,"districtId":"b231234f985a45e49b5ff5566cd918da","districtName":"蓬莱区"},{"id":"cf183914f8b44f0eb58f29e7894fb0d5","name":"萤火虫水洞·地下大峡谷旅游区","description":"","aLevel":"5A","longitude":118.451606,"latitude":35.707778,"cityId":"72b16c2c763b44b39570587b5fcbcda9","cityName":"临沂市","cityCode":null,"districtId":"4733167a42c740d1bd25a68df109a65e","districtName":"沂水县"},{"id":"03441df175b9424e97662d34ef6be72a","name":"沂蒙山旅游区","description":"","aLevel":"5A","longitude":117.977193,"latitude":35.559735,"cityId":"72b16c2c763b44b39570587b5fcbcda9","cityName":"临沂市","cityCode":null,"districtId":"260658ada5fb434c8f3beeb4fe8854d5","districtName":"蒙阴县"},{"id":"dda226891b9447f6b50939e6ec957100","name":"山东青岛崂山景区","description":"","aLevel":"5A","longitude":120.618274,"latitude":36.184922,"cityId":"aa083ca0bb2c4ad5858ead95b4c8446f","cityName":"青岛市","cityCode":null,"districtId":"c8450d011b8746038bdf5a5bcec2fcea","districtName":"崂山区"},{"id":"22bfe2759a0d415a92e83a9960d542a6","name":"奥帆海洋文化旅游区","description":null,"aLevel":"5A","longitude":120.398984,"latitude":36.0574,"cityId":"aa083ca0bb2c4ad5858ead95b4c8446f","cityName":"青岛市","cityCode":null,"districtId":"59ead33a0d5047dd855d3e1ab258a0b9","districtName":"市南区"},{"id":"103c14b4f9fa41c1b5a03ab3452cc1dd","name":"山东威海刘公岛景区","description":"","aLevel":"5A","longitude":122.18309,"latitude":37.502573,"cityId":"45e803823dd44b19abaaaa55461b40fe","cityName":"威海市","cityCode":null,"districtId":"3d84a3a113304aeca4fb3e06a52c6e49","districtName":"环翠区"},{"id":"24d929349a144fd8bdb04973e71f1947","name":"周村古商城景区","description":null,"aLevel":"5A","longitude":117.841013,"latitude":36.798378,"cityId":"f214987a98b5444faf0c28e5dd4242a0","cityName":"淄博市","cityCode":null,"districtId":"ec0de1bef0d84980aff83cd0c6a8235c","districtName":"周村区"},{"id":"682ae3c196514887a8dc4a42bb5428a0","name":"华夏城旅游景区","description":"","aLevel":"5A","longitude":122.125169,"latitude":37.426146,"cityId":"45e803823dd44b19abaaaa55461b40fe","cityName":"威海市","cityCode":null,"districtId":"3d84a3a113304aeca4fb3e06a52c6e49","districtName":"环翠区"},{"id":"ee3118b59d054699b357550493ec29c4","name":"台儿庄古城景区","description":"","aLevel":"5A","longitude":117.752872,"latitude":34.558088,"cityId":"385c7b101646439f9fbd1733382c6650","cityName":"枣庄市","cityCode":null,"districtId":"4d5e05084223430fa1c8e3db35e27cd6","districtName":"台儿庄区"},{"id":"d6fcc36dadba49cc9f165fba7c5fafc6","name":"天下第一泉景区","description":"","aLevel":"5A","longitude":117.025414,"latitude":36.669593,"cityId":"9167a5ae584c415da184e072a846814f","cityName":"济南市","cityCode":null,"districtId":"dd45866a6b254bfab8d3b1d5b6a902c6","districtName":"历下区"},{"id":"d516c81feb5644b2a40466dfa3b50dca","name":"黄河口生态旅游区","description":"","aLevel":"5A","longitude":118.98945,"latitude":37.760706,"cityId":"6fcf54b200df40a7b3b4eb13385eda1f","cityName":"东营市","cityCode":null,"districtId":"3015a865ab5741d1b205f16820e13a5d","districtName":"垦利区"},{"id":"7fa945104cfd44a98b706e93cfac6e9e","name":"泰山景区","description":"","aLevel":"5A","longitude":117.135215,"latitude":36.192833,"cityId":"06e679c93b5a4c7b9c3d2ffa36ebc594","cityName":"泰安市","cityCode":null,"districtId":"058c27614f10423dbf29aed4ae67812a","districtName":"泰山区"},{"id":"b0043aa206814016a71d94137eb1c25b","name":"微山湖旅游区","description":"","aLevel":"5A","longitude":117.22954,"latitude":34.716453,"cityId":"a9335c107b43451995d68a7e735983b5","cityName":"济宁市","cityCode":null,"districtId":"c97c0553e5d3452c83e9faafb63dff99","districtName":"微山县"},{"id":"4d4a8bab73f6474093b9a0ad84dd3042","name":"曲阜明故城（三孔）旅游区","description":"","aLevel":"5A","longitude":116.992007,"latitude":35.596283,"cityId":"a9335c107b43451995d68a7e735983b5","cityName":"济宁市","cityCode":null,"districtId":"1e50b6153b744c00a5886441f00e0a63","districtName":"曲阜市"},{"id":"dc5c1448366f41988640d1b55d76506d","name":"山东烟台龙口南山景区","description":"","aLevel":"5A","longitude":120.483079,"latitude":37.567664,"cityId":"f60b28e12bab40baa5f9558e7169a199","cityName":"烟台市","cityCode":null,"districtId":"8fb9f145b8224b96b923af83430a1904","districtName":"龙口市"},{"id":"ab5407426acb4c23a5fae87a47eb79da","name":"青州古城旅游区","description":"","aLevel":"5A","longitude":118.479126,"latitude":36.681427,"cityId":"a5f4824603d44feeba147c4fe7dcd6e1","cityName":"潍坊市","cityCode":null,"districtId":"aae13deeeb40409496afbb596171fcbb","districtName":"青州市"}]},{"id":"2f5e6f292ff3425584df5a0eb5f5ac0c","name":"江苏省","description":null,"longitude":118.763563,"latitude":32.061377,"scenicSpots":[{"id":"cf0ab611eff341e9965408dc2ca4284f","name":"苏州园林景区","description":null,"aLevel":"5A","longitude":120.629969,"latitude":31.324225,"cityId":"d75b20b72ef34823b2f155a555f9ccb6","cityName":"苏州市","cityCode":null,"districtId":"c6b266ffc8e6494f923945d9b3796460","districtName":"姑苏区"},{"id":"5d83e38f5b924ae28f4f0d4120291668","name":"泰州姜堰溱湖旅游景区","description":null,"aLevel":"5A","longitude":120.102963,"latitude":32.621681,"cityId":"01f9474dd9064a5491e564f416e91aef","cityName":"泰州市","cityCode":null,"districtId":"9b4f9131e7f741f48522df2a3d28702f","districtName":"姜堰区"},{"id":"3682404b45e24a71b26a35dc29634fee","name":"大丰中华麋鹿园景区","description":null,"aLevel":"5A","longitude":120.815458,"latitude":32.984013,"cityId":"ce99ec6376bd4707b3bc342779450944","cityName":"盐城市","cityCode":null,"districtId":"0c02d0afadb6436983dd7294e9d60839","districtName":"大丰区"},{"id":"75182e4483db40a6895d4404f5955153","name":"瘦西湖风景区","description":null,"aLevel":"5A","longitude":119.426028,"latitude":32.402148,"cityId":"ee81fa3d5ad44b98a5d19261315b5197","cityName":"扬州市","cityCode":null,"districtId":"a4f68b06d8cd4a28bb6123ded41a6529","districtName":"邗江区"},{"id":"1556e9a1326147ad82d049d8e7a8c5b4","name":"同里古镇景区","description":null,"aLevel":"5A","longitude":120.723765,"latitude":31.154999,"cityId":"d75b20b72ef34823b2f155a555f9ccb6","cityName":"苏州市","cityCode":null,"districtId":"2885836ad19542b685167476a1814885","districtName":"吴江区"},{"id":"43cf3148b0024b9e962149ef2144e8f8","name":"鼋头渚风景区","description":null,"aLevel":"5A","longitude":120.227995,"latitude":31.517799,"cityId":"6a5c762d07224fbca695f7a79c4e1db2","cityName":"无锡市","cityCode":null,"districtId":"119ee77ccac74fbf8c532e2b8901c22b","districtName":"滨湖区"},{"id":"90c31e6c9e164575af704e613a10b7e1","name":"惠山古镇景区","description":null,"aLevel":"5A","longitude":120.274739,"latitude":31.579431,"cityId":"6a5c762d07224fbca695f7a79c4e1db2","cityName":"无锡市","cityCode":null,"districtId":"d4c50f2df1134f569c172ab35aa945a1","districtName":"梁溪区"},{"id":"b13e3f56c10a4ce096d5509363923e71","name":"云龙湖景区","description":null,"aLevel":"5A","longitude":117.143363,"latitude":34.241093,"cityId":"42eabfd2ed014c47ad675a664cb4bebf","cityName":"徐州市","cityCode":null,"districtId":"ccf60dd7aa9c4300926b5d729c691622","districtName":"泉山区"},{"id":"628bb7964655468989b651c00e09a352","name":"周庄古镇景区","description":null,"aLevel":"5A","longitude":120.850875,"latitude":31.114787,"cityId":"d75b20b72ef34823b2f155a555f9ccb6","cityName":"苏州市","cityCode":null,"districtId":"01459a3838ef407aa3c02948786fb080","districtName":"昆山市"},{"id":"80e86bc3035743cfbffd6771f1bdd4de","name":"连岛旅游度假区","description":null,"aLevel":"5A","longitude":119.241778,"latitude":34.302716,"cityId":"02e9ac8d00b54af1aba7f92d870c6c81","cityName":"连云港市","cityCode":null,"districtId":"6f5ec89e074449c0aafac36b5787d92d","districtName":"灌云县"},{"id":"db24a9947d4343a78f6d6dbaea8fac2d","name":"濠河景区","description":null,"aLevel":"5A","longitude":120.86668,"latitude":32.014963,"cityId":"e401a0c35002400d9b5add75d18fb3eb","cityName":"南通市","cityCode":null,"districtId":"9333e2c2545f41f4903a2266e8442e65","districtName":"崇川区"},{"id":"0a5f77835e2e4109a6ec7c4aff4931a9","name":"灵山景区","description":null,"aLevel":"5A","longitude":120.100925,"latitude":31.42592,"cityId":"6a5c762d07224fbca695f7a79c4e1db2","cityName":"无锡市","cityCode":null,"districtId":"119ee77ccac74fbf8c532e2b8901c22b","districtName":"滨湖区"},{"id":"2cc5d6ad2dcc4f2f9cb381ea7510d417","name":"天目湖景区","description":null,"aLevel":"5A","longitude":119.974092,"latitude":31.811313,"cityId":"447ceedc0cc24f3c8b477b42e28de401","cityName":"常州市","cityCode":null,"districtId":null,"districtName":""},{"id":"c5b21d465aee47beb531897c58bec10c","name":"沙家浜·虞山尚湖旅游区","description":null,"aLevel":"5A","longitude":120.676288,"latitude":31.666158,"cityId":"d75b20b72ef34823b2f155a555f9ccb6","cityName":"苏州市","cityCode":null,"districtId":"65ee7dea7f3841b3b3692c42982d3912","districtName":"常熟市"},{"id":"5b9eeec63068415ba06589a9f2c945e3","name":"中央电视台无锡影视基地三国水浒景区","description":null,"aLevel":"5A","longitude":120.234062,"latitude":31.47749,"cityId":"6a5c762d07224fbca695f7a79c4e1db2","cityName":"无锡市","cityCode":null,"districtId":"119ee77ccac74fbf8c532e2b8901c22b","districtName":"滨湖区"},{"id":"d18c6ee43a464e40992295a542a66f51","name":"金山·焦山·北固山景区","description":null,"aLevel":"5A","longitude":119.420578,"latitude":32.217895,"cityId":"edcfca20e2b44d3a92837d3e0f2eb28c","cityName":"镇江市","cityCode":null,"districtId":"75bf4679a13d46f89bdd7f0646167fa8","districtName":"润州区"},{"id":"df7992ffbdb84cb8bc659ed74c293969","name":"金鸡湖景区","description":null,"aLevel":"5A","longitude":120.704824,"latitude":31.310263,"cityId":"d75b20b72ef34823b2f155a555f9ccb6","cityName":"苏州市","cityCode":null,"districtId":"e0691d044cee4e3eb5be9b3c95f8d46c","districtName":"吴中区"},{"id":"67e1167aadd748329e9aa19349f0cd5f","name":"中国春秋淹城旅游区","description":null,"aLevel":"5A","longitude":119.924598,"latitude":31.700953,"cityId":"447ceedc0cc24f3c8b477b42e28de401","cityName":"常州市","cityCode":null,"districtId":"c1689c1a88b04ec4b0fbdc8c14b0cd11","districtName":"武进区"},{"id":"2994a13980634e8da3afa4cff8ff10af","name":"周恩来故里旅游景区","description":null,"aLevel":"5A","longitude":119.152929,"latitude":33.512579,"cityId":"9ae0b642188f4f988adc0e0f16fb8cf8","cityName":"淮安市","cityCode":null,"districtId":"0ecc6665a52e44ab8db6c68ac94fe9f5","districtName":"淮安区"},{"id":"80821bfc5fb447e28b62a823ee69d96a","name":"吴中太湖旅游区","description":null,"aLevel":"5A","longitude":120.44673,"latitude":31.237324,"cityId":"d75b20b72ef34823b2f155a555f9ccb6","cityName":"苏州市","cityCode":null,"districtId":"e0691d044cee4e3eb5be9b3c95f8d46c","districtName":"吴中区"},{"id":"cf4b63807cb74241b056a99c4ca58440","name":"花果山风景区","description":null,"aLevel":"5A","longitude":119.283146,"latitude":34.645922,"cityId":"02e9ac8d00b54af1aba7f92d870c6c81","cityName":"连云港市","cityCode":null,"districtId":"d968a3a0b6aa4fedb40d290202316e00","districtName":"海州区"},{"id":"57163c3f35444867a131b96efe184783","name":"宿迁洪泽湖湿地景区","description":null,"aLevel":"5A","longitude":118.333081,"latitude":33.262164,"cityId":"a67e9c5b1c894b548dbec24441767921","cityName":"宿迁市","cityCode":null,"districtId":"24803dd61c55484a881c5c37373f26b3","districtName":"泗洪县"},{"id":"8820b49470ca46ea92e5d2a87cc7f58f","name":"句容茅山风景区","description":null,"aLevel":"5A","longitude":119.315475,"latitude":31.782256,"cityId":"edcfca20e2b44d3a92837d3e0f2eb28c","cityName":"镇江市","cityCode":null,"districtId":"a0605ea5e4ad49488c3734532f5ef9b1","districtName":"句容市"},{"id":"b3bc1314cdcc4445acefddf9a2b723b1","name":"钟山风景名胜区—中山陵园风景区","description":null,"aLevel":"5A","longitude":118.844435,"latitude":32.064847,"cityId":"83bcbd44fa5a4475a8ffff8d7dba2952","cityName":"南京市","cityCode":null,"districtId":"fd8980b72fed43fc90e714853e48548a","districtName":"玄武区"},{"id":"94e90b5a70874d96a0fded55b4c1fc04","name":"夫子庙秦淮风光带","description":null,"aLevel":"5A","longitude":118.788972,"latitude":32.020699,"cityId":"83bcbd44fa5a4475a8ffff8d7dba2952","cityName":"南京市","cityCode":null,"districtId":"2826ca7168a14fc8807da3f2fa1d0265","districtName":"秦淮区"},{"id":"f4efc5713557487680c9fe28cdb53ba3","name":"环球恐龙城休闲旅游区","description":null,"aLevel":"5A","longitude":119.99508,"latitude":31.822538,"cityId":"447ceedc0cc24f3c8b477b42e28de401","cityName":"常州市","cityCode":null,"districtId":"1e4a59212ee645f1b18a400bfb55e0ed","districtName":"新北区"}]},{"id":"15ead6622d544a288b275d51f294e453","name":"重庆市","description":null,"longitude":106.550483,"latitude":29.563707,"scenicSpots":[{"id":"e05a0de4a23e4bdb942043cef669e5dd","name":"武陵山大裂谷景区","description":null,"aLevel":"5A","longitude":107.570107,"latitude":29.495603,"cityId":"659e1b2e7c854a76938195b1f2793215","cityName":"重庆城区","cityCode":null,"districtId":"518c757d9153449ba06df0047f70d314","districtName":"涪陵区"},{"id":"4ccb86e4814f4b5eaba347a73cdcb4ba","name":"云阳龙缸景区","description":"","aLevel":"5A","longitude":109.013579,"latitude":30.676021,"cityId":"cfb04e8f52964342964ef1d4a3b1a15b","cityName":"重庆郊县","cityCode":null,"districtId":"a46eda5cfeb1400782a454fef3b76240","districtName":"云阳县"},{"id":"dd054f0048e942358bc050bab977004d","name":"江津四面山景区","description":"","aLevel":"5A","longitude":106.392153,"latitude":28.61635,"cityId":"659e1b2e7c854a76938195b1f2793215","cityName":"重庆城区","cityCode":null,"districtId":"39edd330744343d6816c3d703f0e49bf","districtName":"江津区"},{"id":"0bb999c3a39a4c4d94386143a645a72f","name":"白帝城·瞿塘峡景区","description":"","aLevel":"5A","longitude":109.580984,"latitude":31.038653,"cityId":"cfb04e8f52964342964ef1d4a3b1a15b","cityName":"重庆郊县","cityCode":null,"districtId":"2f7649491530426197ba4890e779ea1a","districtName":"奉节县"},{"id":"89c108cb0d5245e69e486bf7d9a29e6c","name":"重庆巫山小三峡-小小三峡","description":"","aLevel":"5A","longitude":109.901181,"latitude":31.234222,"cityId":"cfb04e8f52964342964ef1d4a3b1a15b","cityName":"重庆郊县","cityCode":null,"districtId":"da36c10ecfaa40e5b5a6f03dc4e4fcd8","districtName":"巫山县"},{"id":"c593d009f69944d9a54a81a39a90c207","name":"武隆喀斯特旅游区(天生三桥·仙女山·芙蓉洞)","description":"","aLevel":"5A","longitude":107.784183,"latitude":29.372488,"cityId":"659e1b2e7c854a76938195b1f2793215","cityName":"重庆城区","cityCode":null,"districtId":"3274ca248c6e406cb784aea5183cc817","districtName":"武隆区"},{"id":"28ed8dd1571f4e1a8c8aad41e349975b","name":"南川金佛山","description":"","aLevel":"5A","longitude":107.12785,"latitude":29.04889,"cityId":"659e1b2e7c854a76938195b1f2793215","cityName":"重庆城区","cityCode":null,"districtId":"1086cb971c8843189de22db364255389","districtName":"南川区"},{"id":"9c9b73deee8247dcab7fae0a2b3335ae","name":"万盛经开区黑山谷景区","description":"","aLevel":"5A","longitude":106.922245,"latitude":28.808729,"cityId":"659e1b2e7c854a76938195b1f2793215","cityName":"重庆城区","cityCode":null,"districtId":"ae1eda6c1f6f446c8f387f58ee735339","districtName":"綦江区"},{"id":"23ea2ad936dc456cbb63cea633599bd0","name":"濯水景区","description":"","aLevel":"5A","longitude":108.758684,"latitude":29.307018,"cityId":"659e1b2e7c854a76938195b1f2793215","cityName":"重庆城区","cityCode":null,"districtId":"fac298619850494d8f2679684050493c","districtName":"黔江区"},{"id":"c70528bcc2494f0091f7cff69e920d99","name":"酉阳桃花源旅游景区","description":"","aLevel":"5A","longitude":108.770663,"latitude":28.842535,"cityId":"cfb04e8f52964342964ef1d4a3b1a15b","cityName":"重庆郊县","cityCode":null,"districtId":"59a98df9146d418291f6cc8fa17876c5","districtName":"酉阳土家族苗族自治县"},{"id":"63a2e6b818034c7d93e4d21231340282","name":"彭水县阿依河景区","description":"","aLevel":"5A","longitude":108.158288,"latitude":29.171593,"cityId":"cfb04e8f52964342964ef1d4a3b1a15b","cityName":"重庆郊县","cityCode":null,"districtId":"a71ff5c517144d0bb445e1bc86e36ad8","districtName":"彭水苗族土家族自治县"},{"id":"13399d104da24f0f8360ecdb2b7be253","name":"重庆大足石刻景区","description":"","aLevel":"5A","longitude":105.79438,"latitude":29.748082,"cityId":"659e1b2e7c854a76938195b1f2793215","cityName":"重庆城区","cityCode":null,"districtId":"dff3799c61d34ce6bdf1d524fbcb4723","districtName":"大足区"}]},{"id":"bdd2d5dc8ffd46dd89286eb4857ecdb1","name":"山西省","description":null,"longitude":112.578781,"latitude":37.813948,"scenicSpots":[{"id":"411d73a9932e416289dd2ed53a0f7e0d","name":"洪洞大槐树寻根祭祖园景区","description":"","aLevel":"5A","longitude":111.675575,"latitude":36.271042,"cityId":"bfc3ed7b13444357b9b30e53b6305306","cityName":"临汾市","cityCode":null,"districtId":"ad422ea0ecbd4f5182da150232f4026a","districtName":"洪洞县"},{"id":"ef893603908848daacf280a25f1ad30c","name":"壶关太行山大峡谷八泉峡景区","description":"","aLevel":"5A","longitude":113.567018,"latitude":35.945148,"cityId":"27a6cb1673154486bb383bd5e1eb1bb3","cityName":"长治市","cityCode":null,"districtId":"c322795efc9641448e3c8277d5263d46","districtName":"壶关县"},{"id":"6a8148eeff874eefa5618cc3a91eaaf5","name":"雁门关景区","description":"","aLevel":"5A","longitude":112.878966,"latitude":39.182243,"cityId":"f3e35132b30941c8babdce3dd6f60fde","cityName":"忻州市","cityCode":null,"districtId":"538632f369bd48f881f78e36393d5a40","districtName":"代县"},{"id":"93be9a55f32e4b15bd8a99f12c3c8dda","name":"云冈石窟","description":"","aLevel":"5A","longitude":113.137763,"latitude":40.113157,"cityId":"6dda73cddd5141dc9486c11260f168b6","cityName":"大同市","cityCode":null,"districtId":"d40cfdc806744ebab6eaab86a0494207","districtName":"云冈区"},{"id":"c691ffeba54740faa9a2b999699fc008","name":"介休绵山景区","description":"","aLevel":"5A","longitude":111.992706,"latitude":36.889205,"cityId":"12965aaeff864254aca22b37830545fd","cityName":"晋中市","cityCode":null,"districtId":"6562ca75da2f4c03981af8ed5f8585a2","districtName":"介休市"},{"id":"bb69bd69867a42768c44c19dfdf5c082","name":"五台山风景名胜区","description":"","aLevel":"5A","longitude":113.590117,"latitude":38.967437,"cityId":"f3e35132b30941c8babdce3dd6f60fde","cityName":"忻州市","cityCode":null,"districtId":"2b97a2ea2aa9408f95f706fd06d10b56","districtName":"五台县"},{"id":"965216bdb937483fabd5cb350eeb3c80","name":"山西晋城皇城相府生态文化旅游区","description":"","aLevel":"5A","longitude":112.576368,"latitude":35.499609,"cityId":"fdb7d7ccceba4c6db70891379739a371","cityName":"晋城市","cityCode":null,"districtId":"06914a8b83c14a3283734d4e7c1f214d","districtName":"阳城县"},{"id":"de9296f9e3c3404f894ae98a47d7710d","name":"晋祠天龙山景区","description":null,"aLevel":"5A","longitude":0,"latitude":0,"cityId":"f60aba83f70544d59db5aa882868d279","cityName":"太原市","cityCode":null,"districtId":"9ef03bfbf05d497c875a3e0ac99ceac5","districtName":"晋源区"},{"id":"5a202d9236f94bbfbfd8ee69ab5eb4a4","name":"黄河壶口瀑布旅游区（陕西省延安市·山西省临汾市）","description":"","aLevel":"5A","longitude":110.465956,"latitude":36.071823,"cityId":"29d6377a2f834b93971612c70dab8817","cityName":"延安市","cityCode":null,"districtId":"fc145365ba854c79a79afd102c802b95","districtName":"宜川县"},{"id":"88cad715aee74176b74ef179da534eb6","name":"平遥古城景区","description":"","aLevel":"5A","longitude":112.183509,"latitude":37.204136,"cityId":"12965aaeff864254aca22b37830545fd","cityName":"晋中市","cityCode":null,"districtId":"4754f598af74477a84c858141cd85f89","districtName":"平遥县"},{"id":"1eed0402ba144050ab33f61e5a8e9aa0","name":"云丘山景区","description":"","aLevel":"5A","longitude":111.021057,"latitude":35.753481,"cityId":"bfc3ed7b13444357b9b30e53b6305306","cityName":"临汾市","cityCode":null,"districtId":"7dad01a37c1a441ea1e701341eb98346","districtName":"乡宁县"}]},{"id":"ca1521eeffb847aabac66efd6c3e3f50","name":"新疆维吾尔自治区","description":null,"longitude":87.628579,"latitude":43.793301,"scenicSpots":[{"id":"624cce90921b4e2292bc033f56124b7c","name":"新疆生产建设兵团阿拉尔市塔克拉玛干·三五九旅文化旅游区","description":"","aLevel":"5A","longitude":85.472209,"latitude":44.690634,"cityId":"9f1f052a174346b19853d5630e20056c","cityName":"塔城地区","cityCode":null,"districtId":"127c2564bb724247a1eba93cf3d5ed6f","districtName":"沙湾市"},{"id":"4cc890632d0747eb81c01c74e613a151","name":"帕米尔旅游区","description":"","aLevel":"5A","longitude":75.223938,"latitude":37.781998,"cityId":"52ff5f1e8df74ee487e17e4001d4d0ef","cityName":"喀什地区","cityCode":null,"districtId":"ca6cc4bcf80e41e2a52f9f07f1ac1a04","districtName":"塔什库尔干塔吉克自治县"},{"id":"81233e56470b43e58bf1288609946c07","name":"新疆生产建设兵团第十师白沙湖景区","description":"","aLevel":"5A","longitude":85.472209,"latitude":44.690634,"cityId":"9f1f052a174346b19853d5630e20056c","cityName":"塔城地区","cityCode":null,"districtId":"127c2564bb724247a1eba93cf3d5ed6f","districtName":"沙湾市"},{"id":"b296a088d62743e6948f389357f5dc45","name":"泽普金湖杨景区","description":"","aLevel":"5A","longitude":77.260375,"latitude":38.184639,"cityId":"52ff5f1e8df74ee487e17e4001d4d0ef","cityName":"喀什地区","cityCode":null,"districtId":"8fc1ac0e2b1547e68ddd5b55996525d5","districtName":"泽普县"},{"id":"1f55ab6b69434dff8d2a394be62fc524","name":"富蕴可可托海景区","description":"","aLevel":"5A","longitude":89.884211,"latitude":47.222081,"cityId":"6f75169dcc2d4dcaa0824acb5075da81","cityName":"阿勒泰地区","cityCode":null,"districtId":"72b16500cbfc43199a47447ed2d344a2","districtName":"富蕴县"},{"id":"496d69d99a574df5b19e3981f1f55e99","name":"新疆伊犁那拉提旅游风景区","description":"","aLevel":"5A","longitude":84.004044,"latitude":43.328611,"cityId":"ffc6e56a2b8c4f2b96ad2c38fc9f37d5","cityName":"伊犁哈萨克自治州","cityCode":null,"districtId":"203680a91ffb44e888c022af92ce0d90","districtName":"新源县"},{"id":"4b6b661927cb436782cd47015acbc3b7","name":"喀什噶尔老城景区","description":"","aLevel":"5A","longitude":77.256549,"latitude":38.415428,"cityId":"52ff5f1e8df74ee487e17e4001d4d0ef","cityName":"喀什地区","cityCode":null,"districtId":"2ae82beaa7f5461b9c14b295f0346515","districtName":"莎车县"},{"id":"81ce3350422f459bbc9552847cdcde45","name":"乌鲁木齐天山大峡谷景区","description":"","aLevel":"5A","longitude":87.441675,"latitude":43.494128,"cityId":"41fcb159798d4fcd8397821e48277398","cityName":"乌鲁木齐市","cityCode":null,"districtId":"9268c4b10ed74923a0e900eea4ad7b34","districtName":"乌鲁木齐县"},{"id":"a0d47a4e0fd248c88ad363d916d8e9ff","name":"新疆天山天池风景名胜区","description":"","aLevel":"5A","longitude":88.129421,"latitude":43.882007,"cityId":"5af9424a04ec48d8a0fdcd17cb8f6ede","cityName":"昌吉回族自治州","cityCode":null,"districtId":"a659cf2cb7c34b7aa47de64fc402902b","districtName":"阜康市"},{"id":"c5dda24b24fa46fdb79f6cf495f8b3d3","name":"博斯腾湖景区","description":"","aLevel":"5A","longitude":86.724979,"latitude":41.837232,"cityId":"b4d82952e2c24991a3a04a152e903540","cityName":"巴音郭楞蒙古自治州","cityCode":null,"districtId":"8f04afddf4b24ca5b410b6e87384f266","districtName":"博湖县"},{"id":"7384512f172441a0a753874b1d5a3a63","name":"新疆自治区巴音州和静巴音布鲁克景区","description":"","aLevel":"5A","longitude":84.14412,"latitude":43.025805,"cityId":"b4d82952e2c24991a3a04a152e903540","cityName":"巴音郭楞蒙古自治州","cityCode":null,"districtId":"eca1d45ee05742278b215f7c9d6a622a","districtName":"和静县"},{"id":"cecbbaa930954625b7608b38c0dc90b0","name":"天山托木尔大峡谷景区","description":null,"aLevel":"5A","longitude":80.661434,"latitude":41.565942,"cityId":"1d0004454c7d47f0b34d5ff331fcc874","cityName":"阿克苏地区","cityCode":null,"districtId":"ad513b432270464882b430c8e8e1e98d","districtName":"温宿县"},{"id":"d774a8af8ebe4300806f8bfbe3336cdd","name":"江布拉克景区","description":"","aLevel":"5A","longitude":89.742569,"latitude":43.664425,"cityId":"5af9424a04ec48d8a0fdcd17cb8f6ede","cityName":"昌吉回族自治州","cityCode":null,"districtId":"a6ab232a5fd442328f774276fd1eab2f","districtName":"奇台县"},{"id":"0d17ae5080424f4d9d419097fef3e942","name":"赛里木湖景区","description":"","aLevel":"5A","longitude":81.385739,"latitude":44.610421,"cityId":"b956f6c204c743afa1317fd5d8adae75","cityName":"博尔塔拉蒙古自治州","cityCode":null,"districtId":"ff32a4fce0414a1b82d9928002a470db","districtName":"博乐市"},{"id":"e127573e6a1e4a45be29baa3c0d647d0","name":"喀纳斯景区","description":"","aLevel":"5A","longitude":87.068707,"latitude":48.637989,"cityId":"6f75169dcc2d4dcaa0824acb5075da81","cityName":"阿勒泰地区","cityCode":null,"districtId":"655e92640ca0403cb2a5974379ee831b","districtName":"布尔津县"},{"id":"22d5a04f2bfe40a882e1bf0ab4150f91","name":"葡萄沟风景区","description":"","aLevel":"5A","longitude":89.248862,"latitude":43.009371,"cityId":"ff1ad21c1eee4c44a6b33d7bdeedaf1a","cityName":"吐鲁番市","cityCode":null,"districtId":"095640f98ad046e5917e87172d98966e","districtName":"高昌区"},{"id":"7e5f5ab9f45e48e69833c973ac7a7108","name":"新疆自治区伊犁州喀拉峻景区","description":"","aLevel":"5A","longitude":82.147406,"latitude":43.059339,"cityId":"ffc6e56a2b8c4f2b96ad2c38fc9f37d5","cityName":"伊犁哈萨克自治州","cityCode":null,"districtId":"9a9071717e624c18a5a6c8bf5bf6cdda","districtName":"特克斯县"},{"id":"7257727991854abfb42fe620fc83d0b7","name":"世界魔鬼城景区","description":"","aLevel":"5A","longitude":85.746634,"latitude":46.129422,"cityId":"ee041f51e5c74263b33e49dad9846048","cityName":"克拉玛依市","cityCode":null,"districtId":"62c708eec98a4225bf8735fe0f561691","districtName":"乌尔禾区"}]},{"id":"ba9ba07552d74ba58eab72700b2096d3","name":"云南省","description":null,"longitude":102.709372,"latitude":25.046432,"scenicSpots":[{"id":"73c36522ac104d98955a2522aec7024b","name":"和顺古镇景区","description":null,"aLevel":"5A","longitude":98.456507,"latitude":25.009652,"cityId":"32b9fc8b41f649589256ede19401e7bd","cityName":"保山市","cityCode":null,"districtId":"795c750344114411a3e009dc64f4a036","districtName":"腾冲市"},{"id":"5cebe6da010f46618904315d069277cb","name":"石林风景区","description":"","aLevel":"5A","longitude":103.325701,"latitude":24.812964,"cityId":"b52da812f5e74b6fb7dd71782628e421","cityName":"昆明市","cityCode":null,"districtId":"f0eb4cf2450a4f01a40dea5c988a9ec3","districtName":"石林彝族自治县"},{"id":"34c501c640f04641a8f944fd01b69d2e","name":"中国科学院西双版纳热带植物园","description":"","aLevel":"5A","longitude":101.273887,"latitude":21.917224,"cityId":"d80e4572f4f54131926d520763f6996b","cityName":"西双版纳傣族自治州","cityCode":null,"districtId":"c8946518dab04350aad7f33bcd00a68d","districtName":"勐腊县"},{"id":"cbdfe0d4962c44de895e675eb51ad0f5","name":"腾冲火山热海旅游区","description":"","aLevel":"5A","longitude":98.509621,"latitude":25.218332,"cityId":"32b9fc8b41f649589256ede19401e7bd","cityName":"保山市","cityCode":null,"districtId":"795c750344114411a3e009dc64f4a036","districtName":"腾冲市"},{"id":"570741c1ab094a21aa426ed9e3a95075","name":"丽江古城景区","description":"","aLevel":"5A","longitude":100.235517,"latitude":26.870507,"cityId":"fa9428904d064d5ca74389e1df7964d2","cityName":"丽江市","cityCode":null,"districtId":"63dff069bb0a453789db6e78c9b5bb16","districtName":"古城区"},{"id":"c96c7756d84a45fe9c806f82b45c5c61","name":"昆明世博园景区","description":"","aLevel":"5A","longitude":102.763496,"latitude":25.075138,"cityId":"b52da812f5e74b6fb7dd71782628e421","cityName":"昆明市","cityCode":null,"districtId":"10e3ffe4cf5647838fc3a594ec4c20ed","districtName":"盘龙区"},{"id":"2379db820ccb43c8b965b93f42b35627","name":"玉龙雪山景区","description":"","aLevel":"5A","longitude":100.210679,"latitude":27.129447,"cityId":"fa9428904d064d5ca74389e1df7964d2","cityName":"丽江市","cityCode":null,"districtId":"e07858c44261435883192d9e5feed709","districtName":"玉龙纳西族自治县"},{"id":"04a302134bca4460be45c0acac544fb0","name":"迪庆州香格里拉普达措景区","description":"","aLevel":"5A","longitude":99.951567,"latitude":27.856671,"cityId":"22f555781d4640598539a3e3afc9ba93","cityName":"迪庆藏族自治州","cityCode":null,"districtId":"4e6b06c96fe649b8b3cd5a3f4b5867ec","districtName":"香格里拉市"},{"id":"0bd3372accc7483babf9d97e5f359b5f","name":"崇圣寺三塔文化旅游区","description":"","aLevel":"5A","longitude":100.143044,"latitude":25.704129,"cityId":"558b6fd240154b0b9a12502934ab2d25","cityName":"大理白族自治州","cityCode":null,"districtId":"f588625c17cc45e9a4bcbdea27df60a8","districtName":"大理市"},{"id":"19a85cab5b4c4d8e9b8ce36336948c43","name":"文山州普者黑旅游景区","description":"","aLevel":"5A","longitude":104.12858,"latitude":24.125393,"cityId":"58bde8b3a6234995a1a56cca42d7f5f7","cityName":"文山壮族苗族自治州","cityCode":null,"districtId":"2f17d43430094e0195be2af57de36890","districtName":"丘北县"}]},{"id":"3474ba299dc64503b744751c7a94863f","name":"河北省","description":null,"longitude":114.530399,"latitude":38.037707,"scenicSpots":[{"id":"4f87d9a2b8c94a8a88882c8c6aebd17f","name":"河北省唐山市南湖·开滦旅游景区","description":null,"aLevel":"5A","longitude":118.200471,"latitude":39.621563,"cityId":"0663573708f847ac9d8b085af7d4af26","cityName":"唐山市","cityCode":null,"districtId":"d4c5b5653df346b48d9396daa1213c1b","districtName":"路南区"},{"id":"81ec748c78c64ed9b01039b04464d1ea","name":"西柏坡景区","description":"","aLevel":"5A","longitude":113.937938,"latitude":38.345274,"cityId":"26ce88105af346b0a2d6154ee7fa5a6e","cityName":"石家庄市","cityCode":null,"districtId":"863f105d4cb94c70be0d83ad58aa516b","districtName":"平山县"},{"id":"8664b462967e4f76a3393acf686d106b","name":"河北保定野三坡景区","description":"","aLevel":"5A","longitude":115.389176,"latitude":39.678151,"cityId":"fc8405fc21284e77a13784cbf09c0c4f","cityName":"保定市","cityCode":null,"districtId":"c1b4c553125343ea9a4fa6639cdfb879","districtName":"涞水县"},{"id":"dca0581168a7424c822b460ad7d930a9","name":"山海关景区","description":"","aLevel":"5A","longitude":119.798682,"latitude":39.970022,"cityId":"128aecbc115c408b8d9664fb5f2b09c1","cityName":"秦皇岛市","cityCode":null,"districtId":"37ebaa6232624efebf1d096957f2aea3","districtName":"山海关区"},{"id":"78b0ff73563746f59e455056cfa8fd88","name":"金山岭长城景区","description":"","aLevel":"5A","longitude":117.255247,"latitude":40.682713,"cityId":"37ef3126efba4181ba23ad9f63049f5e","cityName":"承德市","cityCode":null,"districtId":"748bb7a52fe5461eb3579abcb7aea44d","districtName":"滦平县"},{"id":"e954c966ce23423b9f6155d52f82efcf","name":"白石山景区","description":"","aLevel":"5A","longitude":114.701251,"latitude":39.217777,"cityId":"fc8405fc21284e77a13784cbf09c0c4f","cityName":"保定市","cityCode":null,"districtId":"8459c44b68304652b666a72455cfec10","districtName":"涞源县"},{"id":"8147661b406745959e396025961cd56f","name":"娲皇宫景区","description":"","aLevel":"5A","longitude":113.616602,"latitude":36.640644,"cityId":"ec6418e75517466babdd8d9da0debd39","cityName":"邯郸市","cityCode":null,"districtId":"831e910935c74d97af8cc52079e9d890","districtName":"涉县"},{"id":"41f5211636c74ceabe487f66bb32e32f","name":"承德避暑山庄及周围寺庙景区","description":"","aLevel":"5A","longitude":117.934794,"latitude":40.995449,"cityId":"37ef3126efba4181ba23ad9f63049f5e","cityName":"承德市","cityCode":null,"districtId":"36542a5595c1446ead84804f40946b83","districtName":"双桥区"},{"id":"dd9014ac97904059845d9cf400efc32d","name":"清东陵景区","description":"","aLevel":"5A","longitude":117.684363,"latitude":40.172662,"cityId":"0663573708f847ac9d8b085af7d4af26","cityName":"唐山市","cityCode":null,"districtId":"b067930c8bb8454499d98e2da6b4b8fe","districtName":"遵化市"},{"id":"1e83da7d7b6d4e96a801ae9cc5df639e","name":"安新白洋淀景区","description":"","aLevel":"5A","longitude":115.970602,"latitude":38.941208,"cityId":"fc8405fc21284e77a13784cbf09c0c4f","cityName":"保定市","cityCode":null,"districtId":"4fe7d27b76d84d90b2d9dbc4fe2dd1c4","districtName":"安新县"},{"id":"b512fc4cf9ed45b684c2b6d8e97fbc35","name":"广府古城景区","description":"","aLevel":"5A","longitude":114.730269,"latitude":36.700889,"cityId":"ec6418e75517466babdd8d9da0debd39","cityName":"邯郸市","cityCode":null,"districtId":"51388668b8b34921aae870d11421bc53","districtName":"永年区"},{"id":"79b7623aa859423cb6f8cd3b47ccd9cf","name":"清西陵景区","description":"","aLevel":"5A","longitude":115.362235,"latitude":39.371801,"cityId":"fc8405fc21284e77a13784cbf09c0c4f","cityName":"保定市","cityCode":null,"districtId":"3b77caf46548464c8f1fb07ea3e198d4","districtName":"易县"},{"id":"3fb35aa963664730808edb50d85d4aae","name":"滨湖新区衡水湖景区","description":null,"aLevel":"5A","longitude":115.653142,"latitude":37.652807,"cityId":"3ba34dfc1af4449c8764ee138c80b3e3","cityName":"衡水市","cityCode":null,"districtId":"994ac6dbe1c44fcaaabf97982c0e2389","districtName":"桃城区"}]},{"id":"93e1ff6ccff14c89873377afcab36bf1","name":"辽宁省","description":null,"longitude":123.435093,"latitude":41.836743,"scenicSpots":[{"id":"25ec44a2dce840f8a3d424dab6f1079d","name":"红海滩风景廊道景区","description":"","aLevel":"5A","longitude":121.855343,"latitude":40.835607,"cityId":"bab6a7e85dbc434a8dec499eed11e442","cityName":"盘锦市","cityCode":null,"districtId":"61b9ffd280504c01aefa9be48ab5907b","districtName":"大洼区"},{"id":"b5054a317be048e6b5973e97ac8a735b","name":"本溪水洞景区","description":"","aLevel":"5A","longitude":124.088442,"latitude":41.30033,"cityId":"8237af4777a34b639674fb3ad65a0180","cityName":"本溪市","cityCode":null,"districtId":"8b503ceff418454f9997b1da5dd61559","districtName":"本溪满族自治县"},{"id":"9a6824d46cfe473a9a6e3f8767549aed","name":"辽宁大连金石滩景区","description":"","aLevel":"5A","longitude":122.002684,"latitude":39.082295,"cityId":"bd7a6d28c4ad4678985a08d104c98c8a","cityName":"大连市","cityCode":null,"districtId":"3d41c393c4b54b4f8f84ea80ed5380f5","districtName":"金州区"},{"id":"ed3964a4719244c58c3e880360c3493c","name":"植物园","description":"","aLevel":"5A","longitude":123.464675,"latitude":41.677576,"cityId":"cd1c766be43240129d53b4f4cf309291","cityName":"沈阳市","cityCode":null,"districtId":"fa0404f05f874cb19cbe2849eaaae31a","districtName":"浑南区"},{"id":"38bc0b09377e42fe9b209c1c817cbd5a","name":"五女山景区","description":null,"aLevel":"5A","longitude":125.394416,"latitude":41.297495,"cityId":"8237af4777a34b639674fb3ad65a0180","cityName":"本溪市","cityCode":null,"districtId":"9582137a70454219be5e0a1cfcbdfb32","districtName":"桓仁满族自治县"},{"id":"f7bddfc581544e96bbe7be82182a3a05","name":"大连老虎滩海洋公园.老虎滩极地馆","description":"","aLevel":"5A","longitude":121.675767,"latitude":38.87188,"cityId":"bd7a6d28c4ad4678985a08d104c98c8a","cityName":"大连市","cityCode":null,"districtId":"43e59bae5a5144c39665fe8fc22fe0d2","districtName":"中山区"},{"id":"02916e28782d4e94a79af7383e224f81","name":"千山景区","description":"","aLevel":"5A","longitude":123.126032,"latitude":41.013209,"cityId":"97b03dfacfd34212bf3be558b1e4d385","cityName":"鞍山市","cityCode":null,"districtId":"65bf7b84d5274a31be37cfc75a8bbfa3","districtName":"铁东区"}]},{"id":"afc0b0b6c2bf4b9e9a1a83e6aa1ac9ff","name":"西藏自治区","description":null,"longitude":91.117449,"latitude":29.648694,"scenicSpots":[{"id":"c20b93e325e24a1c984301c9cd53eec7","name":"拉萨布达拉宫景区","description":"","aLevel":"5A","longitude":91.118463,"latitude":29.654471,"cityId":"ad7c9d6160b1458d8aede279f9f00ae3","cityName":"拉萨市","cityCode":null,"districtId":"d7c84f70deee4eb782416ae4907f4c9b","districtName":"城关区"},{"id":"ba510959e961454b82173a7bfc966f88","name":"日喀则扎什伦布寺景区","description":"","aLevel":"5A","longitude":88.871941,"latitude":29.265392,"cityId":"2b45c36b28e14f7eafed1fd6390432b5","cityName":"日喀则市","cityCode":null,"districtId":"2af678cfdd9944229940ee4e7b61d9d4","districtName":"桑珠孜区"},{"id":"ddabbcc48e4147c88ed76c466a04bff2","name":"大昭寺","description":"","aLevel":"5A","longitude":91.132802,"latitude":29.650209,"cityId":"ad7c9d6160b1458d8aede279f9f00ae3","cityName":"拉萨市","cityCode":null,"districtId":"d7c84f70deee4eb782416ae4907f4c9b","districtName":"城关区"},{"id":"6d13a1f703d243038afc7009ed72b75d","name":"雅鲁藏布大峡谷旅游景区","description":"","aLevel":"5A","longitude":94.834274,"latitude":29.57073,"cityId":"516cce73c1ac40b9aa47b0eedc381ff4","cityName":"林芝市","cityCode":null,"districtId":"3063ea8baa354bb8997be194b9b97590","districtName":"米林市"},{"id":"37ef2285ff4d4257bf97b1143c283ad5","name":"林芝巴松措景区","description":"","aLevel":"5A","longitude":93.949037,"latitude":30.014046,"cityId":"516cce73c1ac40b9aa47b0eedc381ff4","cityName":"林芝市","cityCode":null,"districtId":"8d1f178bff3841d6957bbcb93f7ab4da","districtName":"工布江达县"}]},{"id":"6af55f4eaea8400ba8ea91eafc18399b","name":"海南省","description":null,"longitude":110.348781,"latitude":20.018639,"scenicSpots":[{"id":"1a9a7502a2764e53a0360a0f9ea8085c","name":"分界洲岛旅游区","description":"","aLevel":"5A","longitude":110.200208,"latitude":18.578599,"cityId":"c9693f6052e04d8385af11119c727441","cityName":"陵水黎族自治县","cityCode":null,"districtId":null,"districtName":""},{"id":"7a67191c747f45e0b7ff10fb5d4eed63","name":"南山文化旅游区","description":"","aLevel":"5A","longitude":109.208349,"latitude":18.298366,"cityId":"9a423cb083d3490ab7563bc3281611f3","cityName":"三亚市","cityCode":null,"districtId":"5f6e72ec17ac4d0584d8d9a02ad64e1a","districtName":"崖州区"},{"id":"ed28fede824048c3bd7557b709b0a0c3","name":"蜈支洲岛旅游区","description":"","aLevel":"5A","longitude":109.766425,"latitude":18.310216,"cityId":"9a423cb083d3490ab7563bc3281611f3","cityName":"三亚市","cityCode":null,"districtId":"d686f45b61d7469bb7e8adb36188e182","districtName":"海棠区"},{"id":"39aeeca9efc44c84917d64e871325fa5","name":"海南呀诺达雨林文化旅游区","description":"","aLevel":"5A","longitude":109.652724,"latitude":18.456774,"cityId":"0071375d1bd044aa8e79ef30781909f2","cityName":"保亭黎族苗族自治县","cityCode":null,"districtId":null,"districtName":""},{"id":"ad54bf9a6528411294d1af181adc4ac2","name":"南山大小洞天旅游区","description":"","aLevel":"5A","longitude":109.158067,"latitude":18.30089,"cityId":"9a423cb083d3490ab7563bc3281611f3","cityName":"三亚市","cityCode":null,"districtId":"5f6e72ec17ac4d0584d8d9a02ad64e1a","districtName":"崖州区"},{"id":"6ee61f9a2fd746d2aa55e505b297ec21","name":"天涯海角游览区","description":null,"aLevel":"5A","longitude":109.349122,"latitude":18.293956,"cityId":"9a423cb083d3490ab7563bc3281611f3","cityName":"三亚市","cityCode":null,"districtId":"7c3e86b480a84b9ab8e653d467361ba0","districtName":"天涯区"},{"id":"3223320adec147c48426f73b31a0607c","name":"海南槟榔谷黎苗文化旅游区","description":"","aLevel":"5A","longitude":109.664129,"latitude":18.399231,"cityId":"0071375d1bd044aa8e79ef30781909f2","cityName":"保亭黎族苗族自治县","cityCode":null,"districtId":null,"districtName":""}]},{"id":"b39fbc5b93ac4a4a9ce494265170128c","name":"内蒙古自治区","description":null,"longitude":111.765226,"latitude":40.818233,"scenicSpots":[{"id":"5d75b812e54a41d7a0c700825ccd4881","name":"阿尔山·柴河旅游景区","description":"","aLevel":"5A","longitude":120.288571,"latitude":46.966747,"cityId":"1e8ae6358db84ed2803c0c9d89279c1d","cityName":"兴安盟","cityCode":null,"districtId":"fb9a49e1afa943d69861971fe0602f65","districtName":"阿尔山市"},{"id":"ee73a8527b054c04911a179a4430169f","name":"成吉思汗陵旅游区","description":null,"aLevel":"5A","longitude":109.806231,"latitude":39.362636,"cityId":"5d8e43b7f1434e93a7932d8ab5f85211","cityName":"鄂尔多斯市","cityCode":null,"districtId":"873462ba347e4c67aed45634ebe0159e","districtName":"伊金霍洛旗"},{"id":"f962e83ff1794176a5b41b9b6e711df6","name":"中俄边境旅游区","description":"","aLevel":"5A","longitude":117.357303,"latitude":49.629728,"cityId":"29ed1d984ab1423bb2ba522afaf1be6d","cityName":"呼伦贝尔市","cityCode":null,"districtId":"ef5df2368cda44f2bc1e30d8b0dfc264","districtName":"满洲里市"},{"id":"2011d7e2ec15436a9450369057914765","name":"呼伦贝尔大草原·莫尔格勒河景区","description":null,"aLevel":"5A","longitude":0,"latitude":0,"cityId":"29ed1d984ab1423bb2ba522afaf1be6d","cityName":"呼伦贝尔市","cityCode":null,"districtId":"0e521bebeaef448e9739e8ba19286560","districtName":"陈巴尔虎旗"},{"id":"940c96a533e44cb58429407b42e31772","name":"响沙湾旅游景区","description":null,"aLevel":"5A","longitude":109.962311,"latitude":40.244202,"cityId":"5d8e43b7f1434e93a7932d8ab5f85211","cityName":"鄂尔多斯市","cityCode":null,"districtId":"9fd2858c77074db990885f03f915a55b","districtName":"达拉特旗"},{"id":"af279ee21a3647d49be78422ae3dab05","name":"阿斯哈图石阵旅游区","description":"","aLevel":"5A","longitude":117.524094,"latitude":43.962062,"cityId":"d8c4edd13e67406f957a4088af7e9709","cityName":"赤峰市","cityCode":null,"districtId":"901c8005cb3e4ca7ba7370ed1f752f4d","districtName":"克什克腾旗"},{"id":"83919044399a4b5c8858b4abb71e27e1","name":"老牛湾黄河大峡谷旅游区","description":null,"aLevel":"5A","longitude":0,"latitude":0,"cityId":"afae6a234ac24f0c82c97f31005e7e30","cityName":"呼和浩特市","cityCode":null,"districtId":"56027ac8c7a344dd9faaf8f3ebba1af0","districtName":"清水河县"},{"id":"d2ebf0049f1243b39e71ffd80587c80f","name":"胡杨林旅游区","description":"","aLevel":"5A","longitude":101.082708,"latitude":41.961257,"cityId":"ec9d25e1f50e4e9a8224d14de681170c","cityName":"阿拉善盟","cityCode":null,"districtId":"7461e296d15b435f9677b7afaa952222","districtName":"额济纳旗"}]},{"id":"66ca838ac8d2430da881b1e92a8dc424","name":"湖北省","description":null,"longitude":114.341552,"latitude":30.546222,"scenicSpots":[{"id":"ebfee17b83644850bc5f04bfe187e1d0","name":"三峡大坝-屈原故里旅游区","description":"","aLevel":"5A","longitude":110.988096,"latitude":30.825907,"cityId":"d160bfe93c004d26a7a9ea1410105401","cityName":"宜昌市","cityCode":null,"districtId":"3555986584e54ebfaf075d826cd520ee","districtName":"秭归县"},{"id":"e275f095243a4ceca48116cb0e548804","name":"明显陵文化旅游景区","description":null,"aLevel":"5A","longitude":112.636982,"latitude":31.206459,"cityId":"56514b8a37db425b85bcd110de6e8d50","cityName":"荆门市","cityCode":null,"districtId":"fe577353e1a940d1b1e95086a7d130f9","districtName":"钟祥市"},{"id":"2e3e17649d204fd89bde17974cc00751","name":"恩施州神农溪纤夫文化旅游区","description":"","aLevel":"5A","longitude":110.333064,"latitude":31.052614,"cityId":"1200ca0733de45ddb56eaba15d213b17","cityName":"恩施土家族苗族自治州","cityCode":null,"districtId":"f15bdf2364f947bea14ace813e0ca6cc","districtName":"巴东县"},{"id":"64fda3fb34e44e2fb14719d77638a607","name":"三峡大瀑布景区","description":"","aLevel":"5A","longitude":111.317242,"latitude":30.93944,"cityId":"d160bfe93c004d26a7a9ea1410105401","cityName":"宜昌市","cityCode":null,"districtId":"39d49cb2423d42848a984bd3dbdbaacd","districtName":"夷陵区"},{"id":"793837ccac60460db3bf2ce7b7769510","name":"恩施州恩施大峡谷景区","description":"","aLevel":"5A","longitude":109.177899,"latitude":30.426442,"cityId":"1200ca0733de45ddb56eaba15d213b17","cityName":"恩施土家族苗族自治州","cityCode":null,"districtId":"82bccf98a7bd4a048cb998135682e037","districtName":"恩施市"},{"id":"2c76ecce455142bf970e3e9cb327ee39","name":"三峡人家风景区","description":"","aLevel":"5A","longitude":111.156941,"latitude":30.792549,"cityId":"d160bfe93c004d26a7a9ea1410105401","cityName":"宜昌市","cityCode":null,"districtId":"39d49cb2423d42848a984bd3dbdbaacd","districtName":"夷陵区"},{"id":"6d9990185efb4f3a93684b472fdaf415","name":"龟峰山景区","description":null,"aLevel":"5A","longitude":115.227902,"latitude":31.091207,"cityId":"f1456c3903a14288a14f8d7af2089fa3","cityName":"黄冈市","cityCode":null,"districtId":"0c060dc5224b4f208b2cdbfa566cee63","districtName":"麻城市"},{"id":"ab08e439dac0446d896e4d0540496b4b","name":"神农架旅游区","description":"","aLevel":"5A","longitude":110.675879,"latitude":31.745103,"cityId":"908c5e86b284412f883772d9f71ff3dd","cityName":"神农架林区","cityCode":null,"districtId":null,"districtName":""},{"id":"ac097aa546ce44a38bdf79606a7c7176","name":"三国赤壁古战场景区","description":"","aLevel":"5A","longitude":113.630759,"latitude":29.878782,"cityId":"2e3f22bc8e0844e7914cc92c75cee4c3","cityName":"咸宁市","cityCode":null,"districtId":"8d97b20a605e46b1a5045c5d9adac947","districtName":"赤壁市"},{"id":"6ad5b8a5a0b644ba99257bb466dcea4c","name":"古隆中景区","description":"","aLevel":"5A","longitude":112.030786,"latitude":31.991004,"cityId":"5fa198ff2a9b43a4a7d3a40ad7eedd58","cityName":"襄阳市","cityCode":null,"districtId":"60c833e19a00419ca59c8ab5e1d4f28b","districtName":"襄城区"},{"id":"948e64c0cbf7458782d37f697af78aa7","name":"武当山风景区","description":"","aLevel":"5A","longitude":111.064483,"latitude":32.462191,"cityId":"1054b5ec10614c9eb7d664e66688e695","cityName":"十堰市","cityCode":null,"districtId":"7a8bd7ca4a69439289785f2f3254204e","districtName":"丹江口市"},{"id":"b678e89354c94d36947691e20fb46b89","name":"长阳清江画廊景区","description":"","aLevel":"5A","longitude":111.138347,"latitude":30.466625,"cityId":"d160bfe93c004d26a7a9ea1410105401","cityName":"宜昌市","cityCode":null,"districtId":"f64958848f1e412da0ad3162ca1bff60","districtName":"长阳土家族自治县"},{"id":"82a5f515ade64479b9ba98e44abcbed9","name":"黄陂木兰文化生态旅游区","description":"","aLevel":"5A","longitude":114.348862,"latitude":31.07954,"cityId":"174c727281304acb906d184686884a78","cityName":"武汉市","cityCode":null,"districtId":"b2bbc210050746e3a2b5d98070fe55da","districtName":"黄陂区"},{"id":"8c5d94e3fa204b66b3149dd0e0198268","name":"恩施州腾龙洞景区","description":"","aLevel":"5A","longitude":108.991476,"latitude":30.333296,"cityId":"1200ca0733de45ddb56eaba15d213b17","cityName":"恩施土家族苗族自治州","cityCode":null,"districtId":"81c3964c6ad54aae88694661cda6981b","districtName":"利川市"},{"id":"fa4ef5e1ada849439f4de24c45d68da2","name":"黄鹤楼公园","description":"","aLevel":"5A","longitude":114.307795,"latitude":30.542529,"cityId":"174c727281304acb906d184686884a78","cityName":"武汉市","cityCode":null,"districtId":"509c091a2c50471cbee541028b2d513b","districtName":"武昌区"},{"id":"c5e3ee019bb94d609781ee7773116165","name":"东湖景区","description":"","aLevel":"5A","longitude":114.414402,"latitude":30.549876,"cityId":"174c727281304acb906d184686884a78","cityName":"武汉市","cityCode":null,"districtId":"509c091a2c50471cbee541028b2d513b","districtName":"武昌区"}]},{"id":"7329700ec77d488a93cec5a855a2bddc","name":"北京市","description":null,"longitude":116.407387,"latitude":39.904179,"scenicSpots":[{"id":"e041c66d740045ffbf300bda3bc391c9","name":"恭王府景区","description":"","aLevel":"5A","longitude":116.386442,"latitude":39.936428,"cityId":"36bbed36c160479ba5044b5c9caa7ddd","cityName":"北京城区","cityCode":null,"districtId":"aafc024f5b114419a3d37e3837d1013c","districtName":"西城区"},{"id":"46f942d153334d41b7ff1a0d2bd59358","name":"圆明园景区","description":"","aLevel":"5A","longitude":116.309879,"latitude":39.999581,"cityId":"36bbed36c160479ba5044b5c9caa7ddd","cityName":"北京城区","cityCode":null,"districtId":"bd8348b2c86a4928a759e841d81f878d","districtName":"海淀区"},{"id":"48870207abc34e2e88b21c16e2a397d9","name":"天坛公园","description":"","aLevel":"5A","longitude":116.410829,"latitude":39.881913,"cityId":"36bbed36c160479ba5044b5c9caa7ddd","cityName":"北京城区","cityCode":null,"districtId":"8529810668f742358564a0f179454ddd","districtName":"东城区"},{"id":"8c6726c1aac24bbaa1685c3ec9fda573","name":"明十三陵景区","description":"","aLevel":"5A","longitude":116.235741,"latitude":40.280532,"cityId":"36bbed36c160479ba5044b5c9caa7ddd","cityName":"北京城区","cityCode":null,"districtId":"dc5a757a199d4bd69a1de3a64f4d739e","districtName":"昌平区"},{"id":"d158a986cfe245f68f75655f814be2d2","name":"颐和园","description":"","aLevel":"5A","longitude":116.275243,"latitude":39.999602,"cityId":"36bbed36c160479ba5044b5c9caa7ddd","cityName":"北京城区","cityCode":null,"districtId":"bd8348b2c86a4928a759e841d81f878d","districtName":"海淀区"},{"id":"1904773ab8f3491280f969355b500f69","name":"北京八达岭－慕田峪长城旅游区","description":"","aLevel":"5A","longitude":116.565052,"latitude":40.431668,"cityId":"36bbed36c160479ba5044b5c9caa7ddd","cityName":"北京城区","cityCode":null,"districtId":"9c9e93f48ffe49a6a7c93ed63678941e","districtName":"延庆区"},{"id":"5327fbe9988247838d8776f280eb1c8c","name":"故宫博物院","description":"","aLevel":"5A","longitude":116.397029,"latitude":39.917839,"cityId":"36bbed36c160479ba5044b5c9caa7ddd","cityName":"北京城区","cityCode":null,"districtId":"8529810668f742358564a0f179454ddd","districtName":"东城区"},{"id":"c1728ed892d4457da8db8808aef85b89","name":"奥林匹克公园","description":"","aLevel":"5A","longitude":116.391758,"latitude":40.002207,"cityId":"36bbed36c160479ba5044b5c9caa7ddd","cityName":"北京城区","cityCode":null,"districtId":"02ea38e2e6cc4099a846d6171ad1c7fe","districtName":"朝阳区"},{"id":"3c22af6667944669b6578f580adb0236","name":"北京（通州）大运河文化旅游景区","description":null,"aLevel":"5A","longitude":116.713594,"latitude":39.892686,"cityId":"36bbed36c160479ba5044b5c9caa7ddd","cityName":"北京城区","cityCode":null,"districtId":"6fca0532e760437aab6552560d5d6da7","districtName":"通州区"}]},{"id":"e8812fde74bf47d1b9eec6c9bb6ab0cd","name":"上海市","description":null,"longitude":121.473667,"latitude":31.230525,"scenicSpots":[{"id":"9a48091e167943a190ca0c074f979da1","name":"上海明珠湖?西沙湿地","description":null,"aLevel":"5A","longitude":121.229319,"latitude":31.751093,"cityId":"c6a58e049fdb42f186a6f6b3a05d039c","cityName":"上海城区","cityCode":null,"districtId":"4cef8360f40344ae90fc68ed49df108f","districtName":"崇明区"},{"id":"475ca9954dbd4b44945e1cef966c8937","name":"上海东方明珠广播电视塔","description":"","aLevel":"5A","longitude":121.498049,"latitude":31.239863,"cityId":"c6a58e049fdb42f186a6f6b3a05d039c","cityName":"上海城区","cityCode":null,"districtId":"1aae6dcc00ca4290a9ea2932935564b4","districtName":"浦东新区"},{"id":"3d5dbd01953f46ebb4c388b62e6870ce","name":"上海科技馆","description":"","aLevel":"5A","longitude":121.54143,"latitude":31.218042,"cityId":"c6a58e049fdb42f186a6f6b3a05d039c","cityName":"上海城区","cityCode":null,"districtId":"1aae6dcc00ca4290a9ea2932935564b4","districtName":"浦东新区"},{"id":"653578002cf14d6690bed5f1588787e7","name":"上海野生动物园","description":"","aLevel":"5A","longitude":121.721793,"latitude":31.055337,"cityId":"c6a58e049fdb42f186a6f6b3a05d039c","cityName":"上海城区","cityCode":null,"districtId":"1aae6dcc00ca4290a9ea2932935564b4","districtName":"浦东新区"},{"id":"d76ae19cf5844c69a7f4df9816ac5a10","name":"中国共产党一大·二大·四大纪念馆景区","description":"","aLevel":"5A","longitude":121.47591,"latitude":31.219816,"cityId":"c6a58e049fdb42f186a6f6b3a05d039c","cityName":"上海城区","cityCode":null,"districtId":"70a36f90c04c4ed0a0e79e6fa934a573","districtName":"黄浦区"}]},{"id":"51d7bd155201412385ede75157e53501","name":"江西省","description":null,"longitude":115.816587,"latitude":28.637234,"scenicSpots":[{"id":"620ee6703fb541c2bc293c31feaac245","name":"庐山西海景区","description":"","aLevel":"5A","longitude":115.472679,"latitude":29.195255,"cityId":"2f11ae0c93014a24ab8aa8986d0cfabf","cityName":"九江市","cityCode":null,"districtId":"d22ee73fd49a4bf3bf87c186a6f2fbeb","districtName":"永修县"},{"id":"cbf00fa3bcc44f72941d4f4342c23e93","name":"篁岭景区","description":null,"aLevel":"5A","longitude":118.125121,"latitude":29.330208,"cityId":"a30f3ed6ddb2416c92c8859fa6ef95f2","cityName":"上饶市","cityCode":null,"districtId":"70d4cfe453bb4a2c985d30506a27a6cc","districtName":"婺源县"},{"id":"64135cfea2674214af4454529072fe8d","name":"大觉山景区","description":"","aLevel":"5A","longitude":117.14589,"latitude":27.696519,"cityId":"e03e96827ce54d928fecc6bcada28b1e","cityName":"抚州市","cityCode":null,"districtId":"227b524a098a488db95b6ed1065c29aa","districtName":"资溪县"},{"id":"54794865988e46d2b1165b29477f2a45","name":"婺源江湾景区","description":"","aLevel":"5A","longitude":118.051096,"latitude":29.368728,"cityId":"a30f3ed6ddb2416c92c8859fa6ef95f2","cityName":"上饶市","cityCode":null,"districtId":"70d4cfe453bb4a2c985d30506a27a6cc","districtName":"婺源县"},{"id":"045a69d6f22048a686e0a5bc06de0e97","name":"井冈山风景旅游区","description":"","aLevel":"5A","longitude":114.207581,"latitude":26.514643,"cityId":"e094f87da6c04f3b837b9b6b7096a53e","cityName":"吉安市","cityCode":null,"districtId":"5e0d7f5edd5f40668b3559fca832e06f","districtName":"井冈山市"},{"id":"3dafb6ad6f8f4a598871a82d9e384dab","name":"景德镇古窑民俗博览区","description":"","aLevel":"5A","longitude":117.184813,"latitude":29.28343,"cityId":"a865e0dd300d4c25bb79381729c77882","cityName":"景德镇市","cityCode":null,"districtId":"54cd15e8624d45c1aefaf1405594b61d","districtName":"昌江区"},{"id":"f8d590b0affd46f89c95b398ebc44c1e","name":"滕王阁旅游区","description":"","aLevel":"5A","longitude":115.881141,"latitude":28.681356,"cityId":"36077057cc3d45f9b0ff930ec6a1e57e","cityName":"南昌市","cityCode":null,"districtId":"62fc1ac9c51145ccb7a16f5e949e7f7d","districtName":"东湖区"},{"id":"e44ede340d124f049feaca1620480bd6","name":"三清山旅游景区","description":"","aLevel":"5A","longitude":116.972263,"latitude":28.844754,"cityId":"a30f3ed6ddb2416c92c8859fa6ef95f2","cityName":"上饶市","cityCode":null,"districtId":"1184b3e1dc2342c3b01b50ca04dc60ee","districtName":"万年县"},{"id":"dc925543993c4c218004cc2d1bc30ece","name":"共和国摇篮旅游区","description":"","aLevel":"5A","longitude":116.027114,"latitude":25.88623,"cityId":"3d9f2a23b970418a9fa33a062da2b2c5","cityName":"赣州市","cityCode":null,"districtId":"1dcaff09d3f44defb9b30800800b317a","districtName":"瑞金市"},{"id":"797d655b3cfe486fafe2d44b14ec8088","name":"武功山景区","description":"","aLevel":"5A","longitude":114.176611,"latitude":27.468937,"cityId":"eeeb87c8d953410c9ff0dbc57b9fe5c1","cityName":"萍乡市","cityCode":null,"districtId":"3f2676633ea14c83a6a766700023cd90","districtName":"芦溪县"},{"id":"7bc4ddb645d84263a508d903b591913f","name":"龟峰景区","description":"","aLevel":"5A","longitude":117.411718,"latitude":28.337566,"cityId":"a30f3ed6ddb2416c92c8859fa6ef95f2","cityName":"上饶市","cityCode":null,"districtId":"1147206df8a34251a8e5bdafa7022429","districtName":"弋阳县"},{"id":"5bd4b2e6a78f4ceba916da0982e167a2","name":"明月山旅游区","description":"","aLevel":"5A","longitude":114.262014,"latitude":27.602348,"cityId":"8445f13389ef490d97cc112bda04de34","cityName":"宜春市","cityCode":null,"districtId":"a2e3c4a6885548e59648794b1f5a96ff","districtName":"袁州区"},{"id":"07ec749e36a44c8e8e7cda9dfdc5e802","name":"龙虎山旅游景区","description":"","aLevel":"5A","longitude":116.983766,"latitude":28.118029,"cityId":"0391b4b522514571bef5dce0dee5634e","cityName":"鹰潭市","cityCode":null,"districtId":"304350f9ed5e4d51bd02068f42108fbf","districtName":"贵溪市"},{"id":"8246fdad56714c898a0ff1b5d4b3fba5","name":"三百山景区","description":"","aLevel":"5A","longitude":115.431452,"latitude":25.020707,"cityId":"3d9f2a23b970418a9fa33a062da2b2c5","cityName":"赣州市","cityCode":null,"districtId":"a2137624f14c4ef384815d116e01f5fc","districtName":"安远县"},{"id":"12e43a9767934eb5bf35fdd303dfd7dc","name":"庐山风景名胜区","description":"","aLevel":"5A","longitude":115.973221,"latitude":29.521931,"cityId":"2f11ae0c93014a24ab8aa8986d0cfabf","cityName":"九江市","cityCode":null,"districtId":"9c09ee0bc1eb480494d2e8bd02219dd8","districtName":"庐山市"}]},{"id":"7b89b5dbd4dd440d9243e97281a5f3b5","name":"河南省","description":null,"longitude":113.753094,"latitude":34.767052,"scenicSpots":[{"id":"514b1b72109e4806bf4a4bd316a06406","name":"芒砀山旅游景区","description":"","aLevel":"5A","longitude":116.511374,"latitude":34.169873,"cityId":"678cd4a147b04e7f9294bdad64895134","cityName":"商丘市","cityCode":null,"districtId":"33602879879442e399c54b66cc2030fb","districtName":"永城市"},{"id":"5c3f06a93218407090ee63dadf2d94fe","name":"龙门石窟景区","description":"","aLevel":"5A","longitude":112.480894,"latitude":34.544914,"cityId":"e385b00e48914c7f9b43f6788ad843bb","cityName":"洛阳市","cityCode":null,"districtId":"fef27563e4734f4892b4e07cc0b81115","districtName":"洛龙区"},{"id":"0f0efbf6665e44d6b5566e7a073092df","name":"尧山-中原大佛景区","description":"","aLevel":"5A","longitude":112.457045,"latitude":33.773552,"cityId":"71f3a8cbf72c44a2a69a554d8e66736c","cityName":"平顶山市","cityCode":null,"districtId":"9658d02c29dc4db1b64d9da30ca6b85b","districtName":"鲁山县"},{"id":"2dc38d156fdb4b90b0737133b71f0cfa","name":"龙潭大峡谷景区","description":"","aLevel":"5A","longitude":112.008035,"latitude":34.967784,"cityId":"e385b00e48914c7f9b43f6788ad843bb","cityName":"洛阳市","cityCode":null,"districtId":"422d7fba46c34c12ab037c9636a0b835","districtName":"新安县"},{"id":"487efb98f09e4826a08079369e760f33","name":"西峡伏牛山老界岭·恐龙遗址园旅游区","description":"","aLevel":"5A","longitude":111.771419,"latitude":33.660535,"cityId":"20944a3f7e524124ac39fe0a9b6b92cb","cityName":"南阳市","cityCode":null,"districtId":"d1ba9886cc244810a397dcd52167cdac","districtName":"西峡县"},{"id":"a6d710c2908848d5930b83a2eb1623c4","name":"八里沟景区","description":"","aLevel":"5A","longitude":113.622921,"latitude":35.544208,"cityId":"80be724704684dd08db6c14ee5b1410f","cityName":"新乡市","cityCode":null,"districtId":"cdaeb0a299ed45d7809ce06c8f916586","districtName":"辉县市"},{"id":"f824db72ec48484a94c58539720695d5","name":"宝泉旅游区","description":null,"aLevel":"5A","longitude":113.474284,"latitude":35.480523,"cityId":"80be724704684dd08db6c14ee5b1410f","cityName":"新乡市","cityCode":null,"districtId":"cdaeb0a299ed45d7809ce06c8f916586","districtName":"辉县市"},{"id":"8a0b1abebf7d4c23b532861e7088ae68","name":"河南安阳殷墟景区","description":"","aLevel":"5A","longitude":114.325017,"latitude":36.119169,"cityId":"a732d10c1e6d4f36b7faf974bafe3242","cityName":"安阳市","cityCode":null,"districtId":"32d7550720574f3ea2cc02e0e6d20574","districtName":"殷都区"},{"id":"906a0bf500d14bbb970a897a5e0e4b84","name":"河南开封清明上河园","description":"","aLevel":"5A","longitude":114.340685,"latitude":34.809044,"cityId":"bafd4b8004154f45a31b6a51b7f47919","cityName":"开封市","cityCode":null,"districtId":"6a298603afab43f4af16d337a45df8ef","districtName":"龙亭区"},{"id":"d50ef981880b48799c33a8f2331dce6f","name":"云台山－神农山·青天河景区","description":"","aLevel":"5A","longitude":113.429351,"latitude":35.420647,"cityId":"931dfaea7fe04cd38c6344ab04cb0a33","cityName":"焦作市","cityCode":null,"districtId":"a1bef1ce74234743b323f3d292d38e33","districtName":"修武县"},{"id":"a2e856d27276451590c5b422603506d7","name":"河南洛阳白云山景区","description":"","aLevel":"5A","longitude":111.838678,"latitude":33.668138,"cityId":"e385b00e48914c7f9b43f6788ad843bb","cityName":"洛阳市","cityCode":null,"districtId":"1b6105f4d82a4c518b8c47c12f9eddc8","districtName":"嵩县"},{"id":"0f9460d0efeb41718566b5b20fe09d4b","name":"红旗渠·太行大峡谷","description":"","aLevel":"5A","longitude":113.894139,"latitude":35.295533,"cityId":"a732d10c1e6d4f36b7faf974bafe3242","cityName":"安阳市","cityCode":null,"districtId":"c0da5fa7d7404c22a7d771f57efc5b73","districtName":"林州市"},{"id":"0f1e1a1d2f574bb0b35ec6d53963f743","name":"鸡公山景区","description":"","aLevel":"5A","longitude":114.076396,"latitude":31.81206,"cityId":"e5920abec16d4fe689b0e6e425aefb76","cityName":"信阳市","cityCode":null,"districtId":"1d04d98b6fbd42f195d9085827bdcef7","districtName":"浉河区"},{"id":"77a35fb643af41dc9726cf9ac01f9790","name":"洛阳栾川老君山·鸡冠洞旅游区","description":"","aLevel":"5A","longitude":111.57028,"latitude":33.784274,"cityId":"e385b00e48914c7f9b43f6788ad843bb","cityName":"洛阳市","cityCode":null,"districtId":"f9a896e6cbc74a4eb5a494e536464791","districtName":"栾川县"},{"id":"e181a37f26034f2d8fc4d5403d6f2ac7","name":"嵩山少林景区","description":"","aLevel":"5A","longitude":112.949076,"latitude":34.486349,"cityId":"bd97f884ead944e59289f99895da4180","cityName":"郑州市","cityCode":null,"districtId":"ab9e84342a9d47a08869de36cc2c56a0","districtName":"登封市"},{"id":"be70d1b3666840a9b377f750379525b6","name":"太昊伏羲陵文化旅游区","description":null,"aLevel":"5A","longitude":114.889247,"latitude":33.751634,"cityId":"9bec5f674d304f69ba139b297ee85a0b","cityName":"周口市","cityCode":null,"districtId":"00a46b1f9aaa490c8ed8ba33665cc0e8","districtName":"淮阳区"},{"id":"c00931422538458aa92df900728d2f9b","name":"嵖岈山旅游景区","description":"","aLevel":"5A","longitude":113.740723,"latitude":33.131084,"cityId":"190a628926f84586b8128d95c29af3fd","cityName":"驻马店市","cityCode":null,"districtId":"e73410aa9d884754b8e41f1cacc1e4e0","districtName":"遂平县"}]},{"id":"d6fc89b8feca4fd8b1acef54ac415c48","name":"安徽省","description":null,"longitude":117.330139,"latitude":31.734559,"scenicSpots":[{"id":"f7e9a4b94ad143459b970a81a287c4ba","name":"方特旅游区","description":"","aLevel":"5A","longitude":118.463283,"latitude":31.358748,"cityId":"f879ed02e4da44248ec8211d1f6a6bd7","cityName":"芜湖市","cityCode":null,"districtId":"3b3bbf14531646d1b76b8663f9875530","districtName":"鸠江区"},{"id":"7a16897e221b455da7432eda4aaedff3","name":"三河古镇景区","description":"","aLevel":"5A","longitude":117.244402,"latitude":31.510302,"cityId":"aa874160317c4ea1b8ff4a2746294106","cityName":"合肥市","cityCode":null,"districtId":"eab0ee25b2084fb3b7f7ad5bc8d7f5cc","districtName":"肥西县"},{"id":"7e4f79e64e9d40ca813c302968aace79","name":"绩溪龙川景区","description":"","aLevel":"5A","longitude":118.669274,"latitude":30.075802,"cityId":"28c0b8fdf94d43e3b6e82a0687110588","cityName":"宣城市","cityCode":null,"districtId":"89e9fa866a30431bb15e1168c945ea1c","districtName":"绩溪县"},{"id":"538f5f369f6142a4aad133d245e36c5b","name":"长江采石矶文化生态旅游区","description":"","aLevel":"5A","longitude":118.457456,"latitude":31.655648,"cityId":"a608a5f07b1a438e9af23710dd473249","cityName":"马鞍山市","cityCode":null,"districtId":"cbfc650ccf1740138290b4fff1c3469e","districtName":"雨山区"},{"id":"f661995346aa4850ab6c47f8b5fced47","name":"天堂寨旅游景区","description":"","aLevel":"5A","longitude":115.780269,"latitude":31.139543,"cityId":"bf61601a1c144d1484eec8ec702e84a5","cityName":"六安市","cityCode":null,"districtId":"966f7c84b8b4478285ec5adedfedee3e","districtName":"金寨县"},{"id":"63ce5f9cf51b4d118af071f97952ac10","name":"皖南古村落—西递宏村","description":"","aLevel":"5A","longitude":118.337643,"latitude":29.714886,"cityId":"7c68aafa182c464bbe9c9a195225038a","cityName":"黄山市","cityCode":null,"districtId":"55acd7b099034afa8c63b6fe94585eae","districtName":"黟县"},