[{"id":"d1e49bb295014318a88a0600e1ecb8ec","name":"汉文化景区","description":null,"aLevel":"4A","longitude":117.225155,"latitude":34.244172,"cityId":"42eabfd2ed014c47ad675a664cb4bebf","cityName":"徐州市","cityCode":"0516","districtId":"a86f58ee472544f8b8ce05342d155c42","districtName":"云龙区"},{"id":"725f129516da4af2b0ec0f0ad3ffe965","name":"丰县大沙河湿地公园景区","description":null,"aLevel":"4A","longitude":116.716177,"latitude":34.618949,"cityId":"42eabfd2ed014c47ad675a664cb4bebf","cityName":"徐州市","cityCode":"0516","districtId":"2cc6ea57cdaf4f55bd021b7fe86aae14","districtName":"丰县"},{"id":"065b08f969414218869e0f5ba5de8dbb","name":"蟠桃山景区","description":null,"aLevel":"4A","longitude":117.267637,"latitude":34.292531,"cityId":"42eabfd2ed014c47ad675a664cb4bebf","cityName":"徐州市","cityCode":"0516","districtId":"3e61cdd971fc462b8c619477d9785056","districtName":"鼓楼区"},{"id":"aa65252edf064013b8221a8a4d9cccad","name":"彭祖园景区","description":null,"aLevel":"4A","longitude":117.187319,"latitude":34.240376,"cityId":"42eabfd2ed014c47ad675a664cb4bebf","cityName":"徐州市","cityCode":"0516","districtId":"ccf60dd7aa9c4300926b5d729c691622","districtName":"泉山区"},{"id":"ebc83891b9dc40bfb77720117528e35f","name":"徐州沛县微山湖千岛湿地景区","description":null,"aLevel":"4A","longitude":116.975114,"latitude":34.819134,"cityId":"42eabfd2ed014c47ad675a664cb4bebf","cityName":"徐州市","cityCode":"0516","districtId":"aa866c3f13b24499a5c409b9cbf52e2f","districtName":"沛县"},{"id":"d4741e7c34da495ebc18289493a3e7a1","name":"淮海战役烈士纪念塔","description":null,"aLevel":"4A","longitude":117.194277,"latitude":34.23426,"cityId":"42eabfd2ed014c47ad675a664cb4bebf","cityName":"徐州市","cityCode":"0516","districtId":"ccf60dd7aa9c4300926b5d729c691622","districtName":"泉山区"},{"id":"b3beca5fe4fd4c66a2412aece4b30090","name":"潘安湖湿地公园","description":null,"aLevel":"4A","longitude":117.354514,"latitude":34.365552,"cityId":"42eabfd2ed014c47ad675a664cb4bebf","cityName":"徐州市","cityCode":"0516","districtId":"bbcec68208734651a5facdaf31be38ee","districtName":"贾汪区"},{"id":"cf0098906bfe4af0b4ea32ff23e91574","name":"徐州睢宁县水月禅寺景区","description":null,"aLevel":"4A","longitude":117.894374,"latitude":33.923161,"cityId":"42eabfd2ed014c47ad675a664cb4bebf","cityName":"徐州市","cityCode":"0516","districtId":"b98971c211a042958d287cd02a706a81","districtName":"睢宁县"},{"id":"9d4a014629914ff4b04750451db2a411","name":"徐州新沂市马陵山景区","description":null,"aLevel":"4A","longitude":118.34701,"latitude":34.192947,"cityId":"42eabfd2ed014c47ad675a664cb4bebf","cityName":"徐州市","cityCode":"0516","districtId":"04c7f0803abd40dbb3ae937c8a8f52e0","districtName":"新沂市"},{"id":"2ad3d24ab1cc4e6ab7995ac1f760d46d","name":"徐州邳州市艾山景区","description":null,"aLevel":"4A","longitude":117.969263,"latitude":34.509354,"cityId":"42eabfd2ed014c47ad675a664cb4bebf","cityName":"徐州市","cityCode":"0516","districtId":"e4f2f944adc14dfa97a8300968c7ac8b","districtName":"邳州市"},{"id":"fa3358b6f30f42c2a9a860e120dbcca3","name":"徐州乐园景区","description":null,"aLevel":"4A","longitude":117.283752,"latitude":34.204224,"cityId":"42eabfd2ed014c47ad675a664cb4bebf","cityName":"徐州市","cityCode":"0516","districtId":null,"districtName":""},{"id":"db20679e12bc409d91ad706c0a096ac9","name":"悬水湖景区","description":null,"aLevel":"4A","longitude":117.488518,"latitude":34.160408,"cityId":"42eabfd2ed014c47ad675a664cb4bebf","cityName":"徐州市","cityCode":"0516","districtId":"bb4b8cb57a0e4c08a3f42d8dd869f869","districtName":"铜山区"},{"id":"793312ab455d4344a7ce88b9a1a4fa07","name":"徐州邳州市博物馆","description":null,"aLevel":"4A","longitude":118.012511,"latitude":34.339208,"cityId":"42eabfd2ed014c47ad675a664cb4bebf","cityName":"徐州市","cityCode":"0516","districtId":"e4f2f944adc14dfa97a8300968c7ac8b","districtName":"邳州市"},{"id":"2fe51e859ee44310a49f983e039d60b7","name":"铜山风景区","description":null,"aLevel":"4A","longitude":117.169698,"latitude":34.181162,"cityId":"42eabfd2ed014c47ad675a664cb4bebf","cityName":"徐州市","cityCode":"0516","districtId":"bb4b8cb57a0e4c08a3f42d8dd869f869","districtName":"铜山区"},{"id":"68b7ada97c0f4d3ca9959aac4d30bf4c","name":"户部山古民居","description":null,"aLevel":"4A","longitude":117.189965,"latitude":34.255273,"cityId":"42eabfd2ed014c47ad675a664cb4bebf","cityName":"徐州市","cityCode":"0516","districtId":"a86f58ee472544f8b8ce05342d155c42","districtName":"云龙区"},{"id":"174d1e5a069d47848f6c9b16c2452f97","name":"汉画像石艺术馆","description":null,"aLevel":"4A","longitude":117.176998,"latitude":34.241,"cityId":"42eabfd2ed014c47ad675a664cb4bebf","cityName":"徐州市","cityCode":"0516","districtId":"ccf60dd7aa9c4300926b5d729c691622","districtName":"泉山区"},{"id":"704789a102d2406393eeaf1dfe494f5b","name":"大洞山景区","description":null,"aLevel":"4A","longitude":117.504148,"latitude":34.405259,"cityId":"42eabfd2ed014c47ad675a664cb4bebf","cityName":"徐州市","cityCode":"0516","districtId":"bbcec68208734651a5facdaf31be38ee","districtName":"贾汪区"},{"id":"04314e843c03475184b8b6bbcaaee00d","name":"徐州沛县汉城景区","description":null,"aLevel":"4A","longitude":116.928358,"latitude":34.727074,"cityId":"42eabfd2ed014c47ad675a664cb4bebf","cityName":"徐州市","cityCode":"0516","districtId":"aa866c3f13b24499a5c409b9cbf52e2f","districtName":"沛县"},{"id":"dade939900a643c69258be16f1de1324","name":"博物馆","description":null,"aLevel":"4A","longitude":117.283752,"latitude":34.204224,"cityId":"42eabfd2ed014c47ad675a664cb4bebf","cityName":"徐州市","cityCode":"0516","districtId":null,"districtName":""},{"id":"10edecc1bbb64659b2d8d78805dafbd6","name":"凤鸣海景区","description":null,"aLevel":"4A","longitude":117.508347,"latitude":34.439064,"cityId":"42eabfd2ed014c47ad675a664cb4bebf","cityName":"徐州市","cityCode":"0516","districtId":"bbcec68208734651a5facdaf31be38ee","districtName":"贾汪区"},{"id":"865c2e3effbc4755ba52dc6a645b45e5","name":"新沂窑湾古镇旅游区","description":null,"aLevel":"4A","longitude":118.071543,"latitude":34.177912,"cityId":"42eabfd2ed014c47ad675a664cb4bebf","cityName":"徐州市","cityCode":"0516","districtId":"04c7f0803abd40dbb3ae937c8a8f52e0","districtName":"新沂市"},{"id":"9dc8d69158024a1ca600e68e2cd6914a","name":"督公湖旅游区","description":null,"aLevel":"4A","longitude":117.561985,"latitude":34.455388,"cityId":"42eabfd2ed014c47ad675a664cb4bebf","cityName":"徐州市","cityCode":"0516","districtId":"bbcec68208734651a5facdaf31be38ee","districtName":"贾汪区"},{"id":"a2139779091443b3824eed01aab16de8","name":"龟山景区","description":null,"aLevel":"4A","longitude":117.135963,"latitude":34.306794,"cityId":"42eabfd2ed014c47ad675a664cb4bebf","cityName":"徐州市","cityCode":"0516","districtId":"3e61cdd971fc462b8c619477d9785056","districtName":"鼓楼区"}]