[{"id":"459e7b97d82f4791aa9400520a9ca4ec","name":"东山文化公园景区","description":null,"aLevel":"4A","longitude":110.995349,"latitude":22.91931,"cityId":"bbbbbfca37d5432e97495305db6bea75","cityName":"梧州市","cityCode":"0774","districtId":"2b15f05ce56f40f08d4be9864069c71d","districtName":"岑溪市"},{"id":"1efab92ad639449f9f080b9616c4f03f","name":"永安王城景区","description":null,"aLevel":"4A","longitude":110.519698,"latitude":24.206212,"cityId":"bbbbbfca37d5432e97495305db6bea75","cityName":"梧州市","cityCode":"0774","districtId":"216af482578e455eada4c5276221927f","districtName":"蒙山县"},{"id":"3ed04fdfd17f40b4b599113a63c2e3d2","name":"梁羽生公园景区","description":null,"aLevel":"4A","longitude":110.528047,"latitude":24.197367,"cityId":"bbbbbfca37d5432e97495305db6bea75","cityName":"梧州市","cityCode":"0774","districtId":"216af482578e455eada4c5276221927f","districtName":"蒙山县"},{"id":"a960c242e488459eb4b52f5e3961fd3b","name":"骑楼城—龙母庙景区","description":null,"aLevel":"4A","longitude":110.919569,"latitude":23.10857,"cityId":"bbbbbfca37d5432e97495305db6bea75","cityName":"梧州市","cityCode":"0774","districtId":"2b15f05ce56f40f08d4be9864069c71d","districtName":"岑溪市"},{"id":"918386ec4baa48e0bdc7475a52fd71b1","name":"广西民族博物馆旅游景区","description":null,"aLevel":"4A","longitude":111.007093,"latitude":22.926553,"cityId":"bbbbbfca37d5432e97495305db6bea75","cityName":"梧州市","cityCode":"0774","districtId":"2b15f05ce56f40f08d4be9864069c71d","districtName":"岑溪市"},{"id":"42349de552fc4d81880c6154fa6bcf9c","name":"石表山休闲旅游景区","description":null,"aLevel":"4A","longitude":110.692279,"latitude":23.113086,"cityId":"bbbbbfca37d5432e97495305db6bea75","cityName":"梧州市","cityCode":"0774","districtId":"cfe45db5b421410b963bb2dd9b75a23e","districtName":"藤县"},{"id":"e1319b27f38540678684641a7a3282b9","name":"天龙顶山地公园","description":null,"aLevel":"4A","longitude":110.994955,"latitude":22.918327,"cityId":"bbbbbfca37d5432e97495305db6bea75","cityName":"梧州市","cityCode":"0774","districtId":"2b15f05ce56f40f08d4be9864069c71d","districtName":"岑溪市"},{"id":"9210b83763f34ecbb14769e392b10cd1","name":"军事文化体育园景区","description":null,"aLevel":"4A","longitude":111.279022,"latitude":23.476733,"cityId":"bbbbbfca37d5432e97495305db6bea75","cityName":"梧州市","cityCode":"0774","districtId":"e4676cda60da48fa8779e5ac6eff7c09","districtName":"长洲区"},{"id":"0caae931b6714de695876fe4a0fa8e0f","name":"长坪水韵瑶寨景区","description":null,"aLevel":"4A","longitude":110.520584,"latitude":24.33128,"cityId":"bbbbbfca37d5432e97495305db6bea75","cityName":"梧州市","cityCode":"0774","districtId":"216af482578e455eada4c5276221927f","districtName":"蒙山县"},{"id":"59ceb545ec2b4b9d99a475a8a66e6067","name":"李济深故里文化旅游区","description":null,"aLevel":"4A","longitude":111.247514,"latitude":23.414869,"cityId":"bbbbbfca37d5432e97495305db6bea75","cityName":"梧州市","cityCode":"0774","districtId":"f422d759a07940c3bd07a7d7432a1dff","districtName":"龙圩区"},{"id":"bfbdb9d2b31644bf8fe68bad83f2c0ec","name":"玉林市市辖区五彩田园现代特色农业示范区景区","description":null,"aLevel":"4A","longitude":110.54717,"latitude":24.204521,"cityId":"bbbbbfca37d5432e97495305db6bea75","cityName":"梧州市","cityCode":"0774","districtId":"216af482578e455eada4c5276221927f","districtName":"蒙山县"},{"id":"1a838c0401bf485c95c2ce67d127ea8f","name":"天书侠谷景区","description":null,"aLevel":"4A","longitude":110.559305,"latitude":24.214861,"cityId":"bbbbbfca37d5432e97495305db6bea75","cityName":"梧州市","cityCode":"0774","districtId":"216af482578e455eada4c5276221927f","districtName":"蒙山县"},{"id":"cd425efa0021488d95daf76c78a8e5c4","name":"苍海旅游区","description":null,"aLevel":"4A","longitude":111.258506,"latitude":23.41064,"cityId":"bbbbbfca37d5432e97495305db6bea75","cityName":"梧州市","cityCode":"0774","districtId":"f422d759a07940c3bd07a7d7432a1dff","districtName":"龙圩区"}]