[{"id":"446c1474bf26482a87aa0673c4436bbf","name":"香格里拉大峡谷·巴拉格宗景区","description":null,"aLevel":"4A","longitude":99.479829,"latitude":28.366344,"cityId":"22f555781d4640598539a3e3afc9ba93","cityName":"迪庆藏族自治州","cityCode":"0887","districtId":"4e6b06c96fe649b8b3cd5a3f4b5867ec","districtName":"香格里拉市"},{"id":"7f6145162dcf457bbbf116b792c714e0","name":"虎跳峡景区","description":null,"aLevel":"4A","longitude":99.743582,"latitude":27.842185,"cityId":"22f555781d4640598539a3e3afc9ba93","cityName":"迪庆藏族自治州","cityCode":"0887","districtId":"4e6b06c96fe649b8b3cd5a3f4b5867ec","districtName":"香格里拉市"},{"id":"166c88beaece4c13a8b8182d5385d03b","name":"印经院景区","description":null,"aLevel":"4A","longitude":99.876823,"latitude":27.791058,"cityId":"22f555781d4640598539a3e3afc9ba93","cityName":"迪庆藏族自治州","cityCode":"0887","districtId":"4e6b06c96fe649b8b3cd5a3f4b5867ec","districtName":"香格里拉市"},{"id":"7da784a325764b37b0663ab9b01e3197","name":"梅里雪山国家公园旅游区","description":null,"aLevel":"4A","longitude":98.633013,"latitude":28.541342,"cityId":"22f555781d4640598539a3e3afc9ba93","cityName":"迪庆藏族自治州","cityCode":"0887","districtId":"220037d65f1f4306ac1e7a76c31b642f","districtName":"德钦县"},{"id":"2b7beec21bcd43ee9d7b3ece58e838fd","name":"香格里拉蓝月山谷景区","description":null,"aLevel":"4A","longitude":99.633591,"latitude":27.793879,"cityId":"22f555781d4640598539a3e3afc9ba93","cityName":"迪庆藏族自治州","cityCode":"0887","districtId":"4e6b06c96fe649b8b3cd5a3f4b5867ec","districtName":"香格里拉市"},{"id":"d98563b20b104315b83764c2f24b5677","name":"松赞林景区","description":null,"aLevel":"4A","longitude":99.707965,"latitude":27.855854,"cityId":"22f555781d4640598539a3e3afc9ba93","cityName":"迪庆藏族自治州","cityCode":"0887","districtId":"4e6b06c96fe649b8b3cd5a3f4b5867ec","districtName":"香格里拉市"}]