[{"id":"a60af71c42ea4b0ba3c91f4c482e1805","name":"抱犊崮","description":null,"aLevel":"4A","longitude":117.725065,"latitude":34.987797,"cityId":"385c7b101646439f9fbd1733382c6650","cityName":"枣庄市","cityCode":"0632","districtId":"db5c20731dbc45309218bd5cfd6ecfd4","districtName":"山亭区"},{"id":"9ca46ba5de2741048217262f01592656","name":"月亮湾旅游区","description":null,"aLevel":"4A","longitude":117.314043,"latitude":35.142094,"cityId":"385c7b101646439f9fbd1733382c6650","cityName":"枣庄市","cityCode":"0632","districtId":"db5c20731dbc45309218bd5cfd6ecfd4","districtName":"山亭区"},{"id":"ddc23044737e440fac743dfb7c58ed77","name":"滕州微山湖红荷湿地风景区","description":null,"aLevel":"4A","longitude":116.847895,"latitude":35.123008,"cityId":"385c7b101646439f9fbd1733382c6650","cityName":"枣庄市","cityCode":"0632","districtId":"f78f1951c21f4b7a94ffc18f8c464f4e","districtName":"滕州市"},{"id":"a09211e9a65246cdbcd24d6f09121c59","name":"翼云石头部落旅游区","description":null,"aLevel":"4A","longitude":117.501007,"latitude":35.110361,"cityId":"385c7b101646439f9fbd1733382c6650","cityName":"枣庄市","cityCode":"0632","districtId":"db5c20731dbc45309218bd5cfd6ecfd4","districtName":"山亭区"},{"id":"17d155aa20654a99945556d7f08a19f1","name":"熊耳山景区","description":null,"aLevel":"4A","longitude":108.438441,"latitude":31.212544,"cityId":"385c7b101646439f9fbd1733382c6650","cityName":"枣庄市","cityCode":"0632","districtId":"db5c20731dbc45309218bd5cfd6ecfd4","districtName":"山亭区"},{"id":"7e811b9b266d46a9816071732fd79b82","name":"台儿庄大战纪念馆","description":null,"aLevel":"4A","longitude":117.731436,"latitude":34.557464,"cityId":"385c7b101646439f9fbd1733382c6650","cityName":"枣庄市","cityCode":"0632","districtId":"4d5e05084223430fa1c8e3db35e27cd6","districtName":"台儿庄区"},{"id":"aa2572a9dc8c4a4aac9874900bfb4225","name":"运河湿地景区","description":null,"aLevel":"4A","longitude":117.739381,"latitude":34.563861,"cityId":"385c7b101646439f9fbd1733382c6650","cityName":"枣庄市","cityCode":"0632","districtId":"4d5e05084223430fa1c8e3db35e27cd6","districtName":"台儿庄区"},{"id":"e9c9d4cab81c43c4b728ad7fe5bc2e8f","name":"山亭汉诺庄园景区","description":null,"aLevel":"4A","longitude":117.472858,"latitude":35.091922,"cityId":"385c7b101646439f9fbd1733382c6650","cityName":"枣庄市","cityCode":"0632","districtId":"db5c20731dbc45309218bd5cfd6ecfd4","districtName":"山亭区"},{"id":"fc3e47de18b14782b722ade88ec99ff3","name":"枣庄仙坛山旅游区","description":null,"aLevel":"4A","longitude":117.610732,"latitude":34.777411,"cityId":"385c7b101646439f9fbd1733382c6650","cityName":"枣庄市","cityCode":"0632","districtId":"343f72d795734d06bbca510fa333ab18","districtName":"市中区"},{"id":"c9089f60ef514dc38049d90e57f3fb7f","name":"盈泰生态温泉度假村","description":null,"aLevel":"4A","longitude":117.186256,"latitude":35.101278,"cityId":"385c7b101646439f9fbd1733382c6650","cityName":"枣庄市","cityCode":"0632","districtId":"f78f1951c21f4b7a94ffc18f8c464f4e","districtName":"滕州市"},{"id":"cfe5c98c88f144b1849ce876e96806c4","name":"冠世榴园风景区","description":null,"aLevel":"4A","longitude":117.542517,"latitude":34.779166,"cityId":"385c7b101646439f9fbd1733382c6650","cityName":"枣庄市","cityCode":"0632","districtId":"ed5dc6c89de948ab8ce3221ec76e2a53","districtName":"峄城区"},{"id":"7ca9ffad1908476296caec5c89d4de83","name":"鲁南水城·枣庄老街（东湖公园）景区","description":null,"aLevel":"4A","longitude":117.531722,"latitude":34.851625,"cityId":"385c7b101646439f9fbd1733382c6650","cityName":"枣庄市","cityCode":"0632","districtId":"343f72d795734d06bbca510fa333ab18","districtName":"市中区"}]