[{"id":"387887d2233c45a19bb005afca3f2cb0","name":"张家界土司城文化中心","description":null,"aLevel":"4A","longitude":110.464062,"latitude":29.125509,"cityId":"fb89a235da064210b76a4a2f1ca7353e","cityName":"张家界市","cityCode":"0744","districtId":"6043ec90be1548df92f8b35d7c2837a7","districtName":"永定区"},{"id":"39df37b14fce42969397268d809e18b8","name":"东方山景区","description":null,"aLevel":"4A","longitude":110.181921,"latitude":29.4501,"cityId":"fb89a235da064210b76a4a2f1ca7353e","cityName":"张家界市","cityCode":"0744","districtId":"f7a9ae15763f4d048f24ebfb84f0120e","districtName":"桑植县"},{"id":"160774da1f0e4c9782622813cbfda2f5","name":"张家界江垭温泉度假村景区","description":null,"aLevel":"4A","longitude":110.761746,"latitude":29.500323,"cityId":"fb89a235da064210b76a4a2f1ca7353e","cityName":"张家界市","cityCode":"0744","districtId":"5a7045652dab4e4cbd76b7c613c1936f","districtName":"慈利县"},{"id":"6455c39d291b4d46a9aa30e70d2f0fbc","name":"贺龙纪念馆景区","description":null,"aLevel":"4A","longitude":110.168972,"latitude":29.473628,"cityId":"fb89a235da064210b76a4a2f1ca7353e","cityName":"张家界市","cityCode":"0744","districtId":"f7a9ae15763f4d048f24ebfb84f0120e","districtName":"桑植县"},{"id":"29a48898b81343cf8148697438ce0956","name":"龙王洞旅游区","description":null,"aLevel":"4A","longitude":110.733911,"latitude":29.438428,"cityId":"fb89a235da064210b76a4a2f1ca7353e","cityName":"张家界市","cityCode":"0744","districtId":"5a7045652dab4e4cbd76b7c613c1936f","districtName":"慈利县"},{"id":"ded1d41dfb644981a956a5037346d3cd","name":"张家界大峡谷景区","description":null,"aLevel":"4A","longitude":110.699615,"latitude":29.396671,"cityId":"fb89a235da064210b76a4a2f1ca7353e","cityName":"张家界市","cityCode":"0744","districtId":"5a7045652dab4e4cbd76b7c613c1936f","districtName":"慈利县"},{"id":"77a2420856d54948951fcb0947bd102f","name":"朱家峪旅游区","description":null,"aLevel":"4A","longitude":110.686017,"latitude":29.089904,"cityId":"fb89a235da064210b76a4a2f1ca7353e","cityName":"张家界市","cityCode":"0744","districtId":"5a7045652dab4e4cbd76b7c613c1936f","districtName":"慈利县"},{"id":"d8f2b588a3c04e15b3efd5d3b005e83d","name":"九天峰恋景区","description":null,"aLevel":"4A","longitude":110.204804,"latitude":29.414112,"cityId":"fb89a235da064210b76a4a2f1ca7353e","cityName":"张家界市","cityCode":"0744","districtId":"f7a9ae15763f4d048f24ebfb84f0120e","districtName":"桑植县"},{"id":"020da564a0f64c2087bfda4aaf6018d6","name":"黄龙洞景区","description":null,"aLevel":"4A","longitude":110.617803,"latitude":29.368126,"cityId":"fb89a235da064210b76a4a2f1ca7353e","cityName":"张家界市","cityCode":"0744","districtId":"8a53169e9f2a492cb100fdc75b8ae04c","districtName":"武陵源区"},{"id":"9b3b984a18b747fba3efe70e825cc498","name":"宝峰湖风景区","description":null,"aLevel":"4A","longitude":110.542465,"latitude":29.318776,"cityId":"fb89a235da064210b76a4a2f1ca7353e","cityName":"张家界市","cityCode":"0744","districtId":"8a53169e9f2a492cb100fdc75b8ae04c","districtName":"武陵源区"},{"id":"3229dc61728c4ad6a161f6b165c5b4d8","name":"溪布老街非遗文化体验基地","description":null,"aLevel":"4A","longitude":110.554764,"latitude":29.344205,"cityId":"fb89a235da064210b76a4a2f1ca7353e","cityName":"张家界市","cityCode":"0744","districtId":"8a53169e9f2a492cb100fdc75b8ae04c","districtName":"武陵源区"},{"id":"abc49f1ba72846bb9ad9f7c0ea8a396b","name":"张家界万福温泉旅游景区","description":null,"aLevel":"4A","longitude":111.175899,"latitude":29.415935,"cityId":"fb89a235da064210b76a4a2f1ca7353e","cityName":"张家界市","cityCode":"0744","districtId":"5a7045652dab4e4cbd76b7c613c1936f","districtName":"慈利县"}]