[{"id":"a8d440f4eb3c446982ab1da6dd36c6b2","name":"马山口镇云露山景区","description":null,"aLevel":"4A","longitude":112.069669,"latitude":33.31018,"cityId":"20944a3f7e524124ac39fe0a9b6b92cb","cityName":"南阳市","cityCode":"0377","districtId":"8db18e8c479a405ea52f5e6112e734a4","districtName":"内乡县"},{"id":"18d808abcd8049349bbb267ef2ad09b5","name":"花洲书院景区","description":null,"aLevel":"4A","longitude":112.099569,"latitude":32.672975,"cityId":"20944a3f7e524124ac39fe0a9b6b92cb","cityName":"南阳市","cityCode":"0377","districtId":"e019c2776be94959b91d70a06769822a","districtName":"邓州市"},{"id":"24e4db97456448149e7431b46a808865","name":"老鹳河漂流","description":null,"aLevel":"4A","longitude":111.478305,"latitude":33.510386,"cityId":"20944a3f7e524124ac39fe0a9b6b92cb","cityName":"南阳市","cityCode":"0377","districtId":"d1ba9886cc244810a397dcd52167cdac","districtName":"西峡县"},{"id":"680585b9c1d94c9abf244974891b7f87","name":"香严寺景区","description":null,"aLevel":"4A","longitude":111.44082,"latitude":32.77931,"cityId":"20944a3f7e524124ac39fe0a9b6b92cb","cityName":"南阳市","cityCode":"0377","districtId":"2f762551e0734a5c812681bb2b453e6c","districtName":"淅川县"},{"id":"148c514108ca464d91266339857fc60d","name":"南阳卧龙岗武侯祠景区","description":null,"aLevel":"4A","longitude":112.507196,"latitude":32.979396,"cityId":"20944a3f7e524124ac39fe0a9b6b92cb","cityName":"南阳市","cityCode":"0377","districtId":"c4da15e28907480c8a8aa1eec9879525","districtName":"卧龙区"},{"id":"f95b1cc28a344945bcd365e3bee21156","name":"宝天曼景区","description":null,"aLevel":"4A","longitude":112.429277,"latitude":33.489804,"cityId":"20944a3f7e524124ac39fe0a9b6b92cb","cityName":"南阳市","cityCode":"0377","districtId":"19d4c43d423f445b936972264b6c7532","districtName":"南召县"},{"id":"76ffccae508e4d6ba22f7838f575a605","name":"宝天曼生态文化旅游区","description":null,"aLevel":"4A","longitude":111.887142,"latitude":33.482437,"cityId":"20944a3f7e524124ac39fe0a9b6b92cb","cityName":"南阳市","cityCode":"0377","districtId":"8db18e8c479a405ea52f5e6112e734a4","districtName":"内乡县"},{"id":"984f1cb41abd4e36baa8842c42bd44d5","name":"七十二潭景区","description":null,"aLevel":"4A","longitude":112.967252,"latitude":33.407923,"cityId":"20944a3f7e524124ac39fe0a9b6b92cb","cityName":"南阳市","cityCode":"0377","districtId":"543d01a6914b4a23ba2b204314c97294","districtName":"方城县"},{"id":"c4f1503a47304c3f84d58df9ed7a31b0","name":"宝天曼峡谷漂流景区","description":null,"aLevel":"4A","longitude":111.920389,"latitude":33.382368,"cityId":"20944a3f7e524124ac39fe0a9b6b92cb","cityName":"南阳市","cityCode":"0377","districtId":"8db18e8c479a405ea52f5e6112e734a4","districtName":"内乡县"},{"id":"ed0d9600a83547f88c21a96caba76463","name":"七峰山生态旅游区","description":null,"aLevel":"4A","longitude":112.971965,"latitude":33.396347,"cityId":"20944a3f7e524124ac39fe0a9b6b92cb","cityName":"南阳市","cityCode":"0377","districtId":"543d01a6914b4a23ba2b204314c97294","districtName":"方城县"},{"id":"c59611ab2ae443dd90f9b134c606109e","name":"中原二龙山风景区","description":null,"aLevel":"4A","longitude":111.741609,"latitude":33.480524,"cityId":"20944a3f7e524124ac39fe0a9b6b92cb","cityName":"南阳市","cityCode":"0377","districtId":"8db18e8c479a405ea52f5e6112e734a4","districtName":"内乡县"},{"id":"5161d9a4495042e6a5d0b37db89807c7","name":"衙博物馆景区","description":null,"aLevel":"4A","longitude":111.849046,"latitude":33.048412,"cityId":"20944a3f7e524124ac39fe0a9b6b92cb","cityName":"南阳市","cityCode":"0377","districtId":"8db18e8c479a405ea52f5e6112e734a4","districtName":"内乡县"},{"id":"d27cdc75db824030b481b518c5002989","name":"老君洞景区","description":null,"aLevel":"4A","longitude":111.637462,"latitude":33.297361,"cityId":"20944a3f7e524124ac39fe0a9b6b92cb","cityName":"南阳市","cityCode":"0377","districtId":"d1ba9886cc244810a397dcd52167cdac","districtName":"西峡县"},{"id":"891c00e2bcf943aaaa53b5fa32a32056","name":"桐柏山淮源景区","description":null,"aLevel":"4A","longitude":113.298288,"latitude":32.416427,"cityId":"20944a3f7e524124ac39fe0a9b6b92cb","cityName":"南阳市","cityCode":"0377","districtId":"c9bd24b470814e00ba0920a0dea0eadb","districtName":"桐柏县"},{"id":"cc5872ebfe354ea092d6bc87710967a3","name":"四棵树乡五朵山景区","description":null,"aLevel":"4A","longitude":112.348866,"latitude":33.330399,"cityId":"20944a3f7e524124ac39fe0a9b6b92cb","cityName":"南阳市","cityCode":"0377","districtId":"19d4c43d423f445b936972264b6c7532","districtName":"南召县"},{"id":"42cabe3860a44adc9fa6bd609debce2c","name":"山陕会馆景区","description":null,"aLevel":"4A","longitude":112.948183,"latitude":33.056229,"cityId":"20944a3f7e524124ac39fe0a9b6b92cb","cityName":"南阳市","cityCode":"0377","districtId":"c7472f26f6de4cd58e986b6690ef15a4","districtName":"社旗县"},{"id":"68b3ab1e9be84f70a2cfd255d21b77f4","name":"龙潭沟风景区","description":null,"aLevel":"4A","longitude":111.614187,"latitude":33.510404,"cityId":"20944a3f7e524124ac39fe0a9b6b92cb","cityName":"南阳市","cityCode":"0377","districtId":"d1ba9886cc244810a397dcd52167cdac","districtName":"西峡县"},{"id":"074e115e0ce34c9d8f7bef2a49663187","name":"玉雕湾国际玉城景区","description":null,"aLevel":"4A","longitude":112.15634,"latitude":33.065989,"cityId":"20944a3f7e524124ac39fe0a9b6b92cb","cityName":"南阳市","cityCode":"0377","districtId":"43de29e5d48449798ea7a3deba2de636","districtName":"镇平县"},{"id":"962f8a5542ad45708f28ff04b575d890","name":"寺山景区","description":null,"aLevel":"4A","longitude":111.461194,"latitude":33.283558,"cityId":"20944a3f7e524124ac39fe0a9b6b92cb","cityName":"南阳市","cityCode":"0377","districtId":"d1ba9886cc244810a397dcd52167cdac","districtName":"西峡县"}]