[{"id":"beb17be267d64b6d9ce90535fd3f22dd","name":"星岛湖景区","description":null,"aLevel":"4A","longitude":109.148999,"latitude":21.702319,"cityId":"5d21da8e77bf474cba09aa9d68e890bd","cityName":"北海市","cityCode":"0779","districtId":"2012f7202e124d0aa48961c60b81cd8e","districtName":"合浦县"},{"id":"ee9d8f6ccb4a46d7bf2f0c38d8809fba","name":"北海银滩景区","description":null,"aLevel":"4A","longitude":109.136452,"latitude":21.43234,"cityId":"5d21da8e77bf474cba09aa9d68e890bd","cityName":"北海市","cityCode":"0779","districtId":"a110bddda89e43c986479e24833ddb27","districtName":"银海区"},{"id":"22ca845f871941ceb8b90f0014dfb202","name":"北海老城历史文化旅游区","description":null,"aLevel":"4A","longitude":109.120191,"latitude":21.484722,"cityId":"5d21da8e77bf474cba09aa9d68e890bd","cityName":"北海市","cityCode":"0779","districtId":"75b2b7b44cec420d8439b1cce34d1197","districtName":"海城区"},{"id":"e7e4c67bb571425ba0b231e3f20f573e","name":"北海园博园景区","description":null,"aLevel":"4A","longitude":109.176056,"latitude":21.442026,"cityId":"5d21da8e77bf474cba09aa9d68e890bd","cityName":"北海市","cityCode":"0779","districtId":"a110bddda89e43c986479e24833ddb27","districtName":"银海区"},{"id":"36b4bbf58a22429cbb2254f58b6df9c7","name":"北海海底世界景区","description":null,"aLevel":"4A","longitude":109.19327,"latitude":21.665636,"cityId":"5d21da8e77bf474cba09aa9d68e890bd","cityName":"北海市","cityCode":"0779","districtId":"2012f7202e124d0aa48961c60b81cd8e","districtName":"合浦县"},{"id":"ae21709beb5a4df9bf0d7213a3654627","name":"鳄鱼山景区","description":null,"aLevel":"4A","longitude":109.102429,"latitude":21.009399,"cityId":"5d21da8e77bf474cba09aa9d68e890bd","cityName":"北海市","cityCode":"0779","districtId":"75b2b7b44cec420d8439b1cce34d1197","districtName":"海城区"},{"id":"6513536a330c419097047c2dd326b594","name":"北海汉闾文化园景区","description":null,"aLevel":"4A","longitude":109.191836,"latitude":21.642515,"cityId":"5d21da8e77bf474cba09aa9d68e890bd","cityName":"北海市","cityCode":"0779","districtId":"2012f7202e124d0aa48961c60b81cd8e","districtName":"合浦县"},{"id":"5a44e7a2526b4d98864aed26c6210be7","name":"北海金海湾红树林生态旅游区","description":null,"aLevel":"4A","longitude":109.208312,"latitude":21.421459,"cityId":"5d21da8e77bf474cba09aa9d68e890bd","cityName":"北海市","cityCode":"0779","districtId":"a110bddda89e43c986479e24833ddb27","districtName":"银海区"},{"id":"939dc19471244e9e9662fe119d056eeb","name":"北海海洋之窗景区","description":null,"aLevel":"4A","longitude":109.120862,"latitude":21.444758,"cityId":"5d21da8e77bf474cba09aa9d68e890bd","cityName":"北海市","cityCode":"0779","districtId":"a110bddda89e43c986479e24833ddb27","districtName":"银海区"}]