[{"id":"187cfbc6c6e2400d8c631cdb0e9e9ec6","name":"青青世界景区","description":null,"aLevel":"4A","longitude":114.34608,"latitude":23.031198,"cityId":"0fc52f8348e942a19b9b06bc7b549d00","cityName":"惠州市","cityCode":"0752","districtId":"2747fa2fab3c4fd8b0d0d2262ad74743","districtName":"惠城区"},{"id":"db860d9a9f0b4dffb5b237732e8f6f24","name":"龙门铁泉旅游度假区","description":null,"aLevel":"4A","longitude":114.238727,"latitude":23.819067,"cityId":"0fc52f8348e942a19b9b06bc7b549d00","cityName":"惠州市","cityCode":"0752","districtId":"fb48498876344c1caacb8e837f4f28a0","districtName":"龙门县"},{"id":"689da7a5b16544eca98955dd88a8d6b3","name":"南昆山云顶温泉度假区","description":null,"aLevel":"4A","longitude":113.998504,"latitude":23.564947,"cityId":"0fc52f8348e942a19b9b06bc7b549d00","cityName":"惠州市","cityCode":"0752","districtId":"fb48498876344c1caacb8e837f4f28a0","districtName":"龙门县"},{"id":"f3051557035440f6917e62b1a81ea406","name":"水底山旅游度假区","description":null,"aLevel":"4A","longitude":114.929992,"latitude":22.920813,"cityId":"0fc52f8348e942a19b9b06bc7b549d00","cityName":"惠州市","cityCode":"0752","districtId":"973f621ec64944b288fb410db392cde2","districtName":"惠东县"},{"id":"3363677aad6c48099a1782eb41544510","name":"五矿哈施塔特旅游小镇景区","description":null,"aLevel":"4A","longitude":114.330741,"latitude":23.17736,"cityId":"0fc52f8348e942a19b9b06bc7b549d00","cityName":"惠州市","cityCode":"0752","districtId":"b2c456f4ca1d40d39fa1f7fd5eb8e1e8","districtName":"博罗县"},{"id":"95f850649ca84405843093c1020ce732","name":"蓬莱仙洞景区","description":null,"aLevel":"4A","longitude":114.06131,"latitude":23.261039,"cityId":"0fc52f8348e942a19b9b06bc7b549d00","cityName":"惠州市","cityCode":"0752","districtId":"b2c456f4ca1d40d39fa1f7fd5eb8e1e8","districtName":"博罗县"},{"id":"2ceca474044747deb8339f39a7facd10","name":"南昆山大观园生态度假区","description":null,"aLevel":"4A","longitude":114.03526,"latitude":23.612076,"cityId":"0fc52f8348e942a19b9b06bc7b549d00","cityName":"惠州市","cityCode":"0752","districtId":"fb48498876344c1caacb8e837f4f28a0","districtName":"龙门县"},{"id":"c9d2568ebf5b4127a998a2ed2724f6c3","name":"惠州·巽寮国际滨海旅游度假区","description":null,"aLevel":"4A","longitude":114.771792,"latitude":22.69698,"cityId":"0fc52f8348e942a19b9b06bc7b549d00","cityName":"惠州市","cityCode":"0752","districtId":"973f621ec64944b288fb410db392cde2","districtName":"惠东县"},{"id":"9c7acf56b93b4f688c02bfaa873a7498","name":"叶挺将军纪念园景区","description":null,"aLevel":"4A","longitude":114.421434,"latitude":22.855317,"cityId":"0fc52f8348e942a19b9b06bc7b549d00","cityName":"惠州市","cityCode":"0752","districtId":"4830ad52d1ab4bb29c011b55cc0314f9","districtName":"惠阳区"},{"id":"7981e413e9bb416ab3bcdacef70ec2e5","name":"永记生态园","description":null,"aLevel":"4A","longitude":113.266887,"latitude":23.133306,"cityId":"0fc52f8348e942a19b9b06bc7b549d00","cityName":"惠州市","cityCode":"0752","districtId":"973f621ec64944b288fb410db392cde2","districtName":"惠东县"},{"id":"740c8e3bd3fe40f4b541f7e5468ac991","name":"大亚湾红树林城市湿地公园","description":null,"aLevel":"4A","longitude":114.535694,"latitude":22.732397,"cityId":"0fc52f8348e942a19b9b06bc7b549d00","cityName":"惠州市","cityCode":"0752","districtId":"4830ad52d1ab4bb29c011b55cc0314f9","districtName":"惠阳区"},{"id":"2b78e26a49184c31a56bf91ab4455277","name":"惠州海滨温泉旅游度假区","description":null,"aLevel":"4A","longitude":114.804531,"latitude":22.649284,"cityId":"0fc52f8348e942a19b9b06bc7b549d00","cityName":"惠州市","cityCode":"0752","districtId":"973f621ec64944b288fb410db392cde2","districtName":"惠东县"}]