[{"id":"5cd5635c98ea4185bb6009a60c05fad4","name":"中国河源．巴伐利亚庄园","description":null,"aLevel":"4A","longitude":114.623001,"latitude":23.624926,"cityId":"3b77aea035474657aee3077a090d1c30","cityName":"河源市","cityCode":"0762","districtId":"c3cf794d0fdc43f1aef355ef8420dd25","districtName":"源城区"},{"id":"d997676670774cd5bc000e4b3102dd09","name":"客天下国际旅游度假区","description":null,"aLevel":"4A","longitude":114.631374,"latitude":23.627942,"cityId":"3b77aea035474657aee3077a090d1c30","cityName":"河源市","cityCode":"0762","districtId":"c3cf794d0fdc43f1aef355ef8420dd25","districtName":"源城区"},{"id":"90ed1d2d0b45456589ab3ff9040dac28","name":"苏家围客家乡村旅游区","description":null,"aLevel":"4A","longitude":114.887866,"latitude":23.842176,"cityId":"3b77aea035474657aee3077a090d1c30","cityName":"河源市","cityCode":"0762","districtId":"0b614962cc7c4bd58cc1617b56bdbc22","districtName":"东源县"},{"id":"4e1a6b3bc41d4b86b88e693955bddc41","name":"御临门温泉度假区","description":null,"aLevel":"4A","longitude":114.700215,"latitude":23.744276,"cityId":"3b77aea035474657aee3077a090d1c30","cityName":"河源市","cityCode":"0762","districtId":"c3cf794d0fdc43f1aef355ef8420dd25","districtName":"源城区"},{"id":"946a6304670349718ae36afa604753ac","name":"叶园温泉旅游区","description":null,"aLevel":"4A","longitude":114.97494,"latitude":23.830577,"cityId":"3b77aea035474657aee3077a090d1c30","cityName":"河源市","cityCode":"0762","districtId":"0b614962cc7c4bd58cc1617b56bdbc22","districtName":"东源县"},{"id":"6e15a9a066914c9a8f66db3de1c1960a","name":"和平温泉之都旅游区","description":null,"aLevel":"4A","longitude":114.827264,"latitude":24.413306,"cityId":"3b77aea035474657aee3077a090d1c30","cityName":"河源市","cityCode":"0762","districtId":"688f6d21970c451ab7da5e523545434d","districtName":"和平县"}]