[{"id":"d30dc2f2ceb24764bea90c1cd8d4f544","name":"莲华乡村旅游区","description":null,"aLevel":"4A","longitude":116.809996,"latitude":23.596947,"cityId":"73dd726d0d4f4bb284661d4f578bf480","cityName":"汕头市","cityCode":"0754","districtId":"c3b09b3fee0043c18cb7be7ec27c609b","districtName":"澄海区"},{"id":"be65ba83176d419396211bb4d9119daa","name":"前美古村侨文化旅游区","description":null,"aLevel":"4A","longitude":116.745231,"latitude":23.567299,"cityId":"73dd726d0d4f4bb284661d4f578bf480","cityName":"汕头市","cityCode":"0754","districtId":"c3b09b3fee0043c18cb7be7ec27c609b","districtName":"澄海区"},{"id":"3a81ac368f4f4dc09ea2861effd180dd","name":"中海度假村","description":null,"aLevel":"4A","longitude":116.688203,"latitude":23.22495,"cityId":"73dd726d0d4f4bb284661d4f578bf480","cityName":"汕头市","cityCode":"0754","districtId":"4da8304d4e0b4ac68d9674e9751cbbeb","districtName":"濠江区"},{"id":"a9c4d7f6c843475f9195b52336f37ec8","name":"礐石风景名胜景区","description":null,"aLevel":"4A","longitude":116.670941,"latitude":23.333667,"cityId":"73dd726d0d4f4bb284661d4f578bf480","cityName":"汕头市","cityCode":"0754","districtId":"4da8304d4e0b4ac68d9674e9751cbbeb","districtName":"濠江区"},{"id":"ebf3f7c2320840c7b951b96019c70681","name":"方特蓝水星旅游区","description":null,"aLevel":"4A","longitude":116.716464,"latitude":23.372211,"cityId":"73dd726d0d4f4bb284661d4f578bf480","cityName":"汕头市","cityCode":"0754","districtId":"3b36ca5d607740dc9bfe439d2ff5a9a1","districtName":"龙湖区"},{"id":"b65cf4cf0d7949c0a767de8008116572","name":"潮阳莲花峰风景区","description":null,"aLevel":"4A","longitude":116.615382,"latitude":23.181023,"cityId":"73dd726d0d4f4bb284661d4f578bf480","cityName":"汕头市","cityCode":"0754","districtId":"059f1c1eeea74d519cc3d36ccd53c4de","districtName":"潮阳区"},{"id":"c890b910f4ef4e73a980fc38fabc4939","name":"汕头南澳岛旅游区","description":null,"aLevel":"4A","longitude":117.028266,"latitude":23.424681,"cityId":"73dd726d0d4f4bb284661d4f578bf480","cityName":"汕头市","cityCode":"0754","districtId":"871243500f14440c8b7e708ef0d89419","districtName":"南澳县"}]