[{"id":"a38213c1e4284065a2ed06076fa11472","name":"宛田乡在水一汸景区","description":null,"aLevel":"4A","longitude":110.069381,"latitude":25.522385,"cityId":"acd8b276c9264b0db3a6c2754d1b9fdc","cityName":"桂林市","cityCode":"0773","districtId":"ea5e988398774d84a8cb251c7ed8205e","districtName":"临桂区"},{"id":"b19f95a8d17441eca6ef07aaa80c7641","name":"桂林经典刘三姐大观园景区","description":null,"aLevel":"4A","longitude":110.269654,"latitude":25.280555,"cityId":"acd8b276c9264b0db3a6c2754d1b9fdc","cityName":"桂林市","cityCode":"0773","districtId":"da3f4da396284cc287a15ea69c859e6d","districtName":"秀峰区"},{"id":"1413f6ff9ece4c8282d916f481863f84","name":"红军长征突破湘江烈士纪念碑园景区","description":null,"aLevel":"4A","longitude":110.656443,"latitude":25.605648,"cityId":"acd8b276c9264b0db3a6c2754d1b9fdc","cityName":"桂林市","cityCode":"0773","districtId":"48c6d58c04114b1a86a6e9293e073b50","districtName":"兴安县"},{"id":"02841896eba44b17999e19740c6a5b87","name":"大圩古镇景区","description":null,"aLevel":"4A","longitude":110.42711,"latitude":25.181441,"cityId":"acd8b276c9264b0db3a6c2754d1b9fdc","cityName":"桂林市","cityCode":"0773","districtId":"9902c76f33444608a903b918b9a03c0f","districtName":"灵川县"},{"id":"b4e8855a9bf84fd791dc1bb82ed1cde6","name":"世外桃源景区","description":null,"aLevel":"4A","longitude":110.388372,"latitude":24.863414,"cityId":"acd8b276c9264b0db3a6c2754d1b9fdc","cityName":"桂林市","cityCode":"0773","districtId":"4fbaa87059d44b7d98134035e02061d7","districtName":"阳朔县"},{"id":"8f84b5df2d884622b95222416b7916d7","name":"湘山?湘源历史文化旅游区","description":null,"aLevel":"4A","longitude":111.075456,"latitude":25.937206,"cityId":"acd8b276c9264b0db3a6c2754d1b9fdc","cityName":"桂林市","cityCode":"0773","districtId":"b0b9c6adb77a460faa38174d58290769","districtName":"全州县"},{"id":"6a4d386f9ef04e978f05257b5a8ae4be","name":"荔蒲县丰鱼岩景区","description":null,"aLevel":"4A","longitude":110.363739,"latitude":24.41296,"cityId":"acd8b276c9264b0db3a6c2754d1b9fdc","cityName":"桂林市","cityCode":"0773","districtId":"674776da95d64564a064780fc4a3e42e","districtName":"荔浦市"},{"id":"d4ce7b4444994b69922832c8cd9cda8d","name":"西山景区","description":null,"aLevel":"4A","longitude":110.264102,"latitude":25.273954,"cityId":"acd8b276c9264b0db3a6c2754d1b9fdc","cityName":"桂林市","cityCode":"0773","districtId":"da3f4da396284cc287a15ea69c859e6d","districtName":"秀峰区"},{"id":"2169d7ac18b04328bb8741389a1e09d9","name":"红军长征湘江战役纪念馆景区","description":null,"aLevel":"4A","longitude":110.949593,"latitude":25.910416,"cityId":"acd8b276c9264b0db3a6c2754d1b9fdc","cityName":"桂林市","cityCode":"0773","districtId":"b0b9c6adb77a460faa38174d58290769","districtName":"全州县"},{"id":"dfdb2153955f4085ac7d428c86600669","name":"阳朔图腾古道—聚龙潭景区","description":null,"aLevel":"4A","longitude":110.491969,"latitude":24.748454,"cityId":"acd8b276c9264b0db3a6c2754d1b9fdc","cityName":"桂林市","cityCode":"0773","districtId":"4fbaa87059d44b7d98134035e02061d7","districtName":"阳朔县"},{"id":"b86f5620eac24f3f986a43f66b4b05fd","name":"尧山景区","description":null,"aLevel":"4A","longitude":110.369547,"latitude":25.292285,"cityId":"acd8b276c9264b0db3a6c2754d1b9fdc","cityName":"桂林市","cityCode":"0773","districtId":"7d35645278c140f8b5440abdf0f15041","districtName":"七星区"},{"id":"5f82a5effe1b42c7867c4b0bd35ce1a2","name":"冠岩地下河景区","description":null,"aLevel":"4A","longitude":110.286611,"latitude":25.101798,"cityId":"acd8b276c9264b0db3a6c2754d1b9fdc","cityName":"桂林市","cityCode":"0773","districtId":"34fb9118aaac49caa9698352309f88e7","districtName":"雁山区"},{"id":"a96a5e29ad81488babbb5cbf9ec64a0f","name":"桂林龙胜龙脊梯田景区","description":null,"aLevel":"4A","longitude":110.140047,"latitude":25.770717,"cityId":"acd8b276c9264b0db3a6c2754d1b9fdc","cityName":"桂林市","cityCode":"0773","districtId":"0e66b5f0c7fe445fb609cc8fab4ec632","districtName":"龙胜各族自治县"},{"id":"f444e990302e40afac6d64adbf775256","name":"桂林资江天门山景区","description":null,"aLevel":"4A","longitude":110.477717,"latitude":25.903885,"cityId":"acd8b276c9264b0db3a6c2754d1b9fdc","cityName":"桂林市","cityCode":"0773","districtId":"34f70995b0354547a9d4351589dcc6e0","districtName":"资源县"},{"id":"23b99e856a954518a251670f40c79f00","name":"桂林新区环城水系景区","description":null,"aLevel":"4A","longitude":110.176572,"latitude":25.239593,"cityId":"acd8b276c9264b0db3a6c2754d1b9fdc","cityName":"桂林市","cityCode":"0773","districtId":"ea5e988398774d84a8cb251c7ed8205e","districtName":"临桂区"},{"id":"b8d03482a8b74342b7f76b36179946d9","name":"桂林阳朔西街景区","description":null,"aLevel":"4A","longitude":110.496481,"latitude":24.776954,"cityId":"acd8b276c9264b0db3a6c2754d1b9fdc","cityName":"桂林市","cityCode":"0773","districtId":"4fbaa87059d44b7d98134035e02061d7","districtName":"阳朔县"},{"id":"dea4c55ab42b4c1e8eed7de799702434","name":"资江灯谷景区","description":null,"aLevel":"4A","longitude":110.653344,"latitude":26.043992,"cityId":"acd8b276c9264b0db3a6c2754d1b9fdc","cityName":"桂林市","cityCode":"0773","districtId":"34f70995b0354547a9d4351589dcc6e0","districtName":"资源县"},{"id":"8b7d6c332dd84ad39176878a706151d2","name":"漓江·古东景区","description":null,"aLevel":"4A","longitude":110.382351,"latitude":25.410957,"cityId":"acd8b276c9264b0db3a6c2754d1b9fdc","cityName":"桂林市","cityCode":"0773","districtId":"9902c76f33444608a903b918b9a03c0f","districtName":"灵川县"},{"id":"167c867531ee4ea0b6ed8992fcb28a08","name":"灵渠景区","description":null,"aLevel":"4A","longitude":110.678638,"latitude":25.600714,"cityId":"acd8b276c9264b0db3a6c2754d1b9fdc","cityName":"桂林市","cityCode":"0773","districtId":"48c6d58c04114b1a86a6e9293e073b50","districtName":"兴安县"},{"id":"ff8006b6a7984462ab4f9ad4f9dec9c9","name":"七星景区","description":null,"aLevel":"4A","longitude":110.313397,"latitude":25.271824,"cityId":"acd8b276c9264b0db3a6c2754d1b9fdc","cityName":"桂林市","cityCode":"0773","districtId":"7d35645278c140f8b5440abdf0f15041","districtName":"七星区"},{"id":"de62a7f7a4d14cdd8f49a72e3e0b7968","name":"荔江湾景区","description":null,"aLevel":"4A","longitude":110.334976,"latitude":24.442266,"cityId":"acd8b276c9264b0db3a6c2754d1b9fdc","cityName":"桂林市","cityCode":"0773","districtId":"674776da95d64564a064780fc4a3e42e","districtName":"荔浦市"},{"id":"9a5c664004fc4c93a2b6a8da16b23f95","name":"湘江战役新圩阻击战纪念园","description":null,"aLevel":"4A","longitude":111.137705,"latitude":25.547649,"cityId":"acd8b276c9264b0db3a6c2754d1b9fdc","cityName":"桂林市","cityCode":"0773","districtId":"c4889470a61942ac842947103625f600","districtName":"灌阳县"},{"id":"55a9fd00fc2844b39788b4dfdf493f99","name":"桂林红溪景区","description":null,"aLevel":"4A","longitude":110.099616,"latitude":25.461499,"cityId":"acd8b276c9264b0db3a6c2754d1b9fdc","cityName":"桂林市","cityCode":"0773","districtId":"ea5e988398774d84a8cb251c7ed8205e","districtName":"临桂区"},{"id":"4ba62b4a2c7c4298acdfbe37c5789f24","name":"桂林丹霞?八角寨景区","description":null,"aLevel":"4A","longitude":110.72786,"latitude":26.270398,"cityId":"acd8b276c9264b0db3a6c2754d1b9fdc","cityName":"桂林市","cityCode":"0773","districtId":"34f70995b0354547a9d4351589dcc6e0","districtName":"资源县"},{"id":"6f0297e3025c44dea188c44ad8c2d633","name":"罗山湖?玛雅水上乐园","description":null,"aLevel":"4A","longitude":110.055752,"latitude":25.235943,"cityId":"acd8b276c9264b0db3a6c2754d1b9fdc","cityName":"桂林市","cityCode":"0773","districtId":"ea5e988398774d84a8cb251c7ed8205e","districtName":"临桂区"},{"id":"eba4e2cdccfa41dc8b7dcff718e1368b","name":"金钟山风景区","description":null,"aLevel":"4A","longitude":109.982974,"latitude":24.980447,"cityId":"acd8b276c9264b0db3a6c2754d1b9fdc","cityName":"桂林市","cityCode":"0773","districtId":"bbf243698499445daf8f5ad47c3f27a0","districtName":"永福县"},{"id":"4de534448a434394b980d1578e5a4470","name":"龙胜温泉旅游度假区","description":null,"aLevel":"4A","longitude":110.212275,"latitude":25.892072,"cityId":"acd8b276c9264b0db3a6c2754d1b9fdc","cityName":"桂林市","cityCode":"0773","districtId":"0e66b5f0c7fe445fb609cc8fab4ec632","districtName":"龙胜各族自治县"},{"id":"3135bc5878a04a0a9b14d248be46a853","name":"银子岩景区","description":null,"aLevel":"4A","longitude":110.438899,"latitude":24.63753,"cityId":"acd8b276c9264b0db3a6c2754d1b9fdc","cityName":"桂林市","cityCode":"0773","districtId":"674776da95d64564a064780fc4a3e42e","districtName":"荔浦市"},{"id":"494556fc9f714b96a6f7d373e7d0fc04","name":"红岩景区","description":null,"aLevel":"4A","longitude":110.858212,"latitude":24.729007,"cityId":"acd8b276c9264b0db3a6c2754d1b9fdc","cityName":"桂林市","cityCode":"0773","districtId":"802db8a53c7241be806d2a5bf1c019fa","districtName":"恭城瑶族自治县"},{"id":"1655855ab65b490cba7ed60fd6dc7aa4","name":"大碧头国际旅游度假区","description":null,"aLevel":"4A","longitude":111.257216,"latitude":26.137403,"cityId":"acd8b276c9264b0db3a6c2754d1b9fdc","cityName":"桂林市","cityCode":"0773","districtId":"b0b9c6adb77a460faa38174d58290769","districtName":"全州县"},{"id":"d2d0e8ec93c943ceaef3d6571d1406d9","name":"棉花天坑景区","description":null,"aLevel":"4A","longitude":109.676363,"latitude":24.985594,"cityId":"acd8b276c9264b0db3a6c2754d1b9fdc","cityName":"桂林市","cityCode":"0773","districtId":"bbf243698499445daf8f5ad47c3f27a0","districtName":"永福县"},{"id":"27a48c8710d24b789a22d93a447f823e","name":"蝴蝶泉旅游景区","description":null,"aLevel":"4A","longitude":110.499292,"latitude":24.735321,"cityId":"acd8b276c9264b0db3a6c2754d1b9fdc","cityName":"桂林市","cityCode":"0773","districtId":"4fbaa87059d44b7d98134035e02061d7","districtName":"阳朔县"},{"id":"d550c3b792744c61ae99dc3e745b19bc","name":"穿山景区","description":null,"aLevel":"4A","longitude":110.304191,"latitude":25.251983,"cityId":"acd8b276c9264b0db3a6c2754d1b9fdc","cityName":"桂林市","cityCode":"0773","districtId":"7d35645278c140f8b5440abdf0f15041","districtName":"七星区"},{"id":"6bc45d3fd648414b966fdd0b3269f387","name":"桂林愚自乐园艺术园","description":null,"aLevel":"4A","longitude":110.337794,"latitude":25.04788,"cityId":"acd8b276c9264b0db3a6c2754d1b9fdc","cityName":"桂林市","cityCode":"0773","districtId":"34fb9118aaac49caa9698352309f88e7","districtName":"雁山区"},{"id":"c4bca42fc7054759a44de2f8219c4c1c","name":"逍遥湖景区","description":null,"aLevel":"4A","longitude":110.45791,"latitude":25.126175,"cityId":"acd8b276c9264b0db3a6c2754d1b9fdc","cityName":"桂林市","cityCode":"0773","districtId":"9902c76f33444608a903b918b9a03c0f","districtName":"灵川县"},{"id":"cdf4730d6ea348b0b6e6eaf63ab2bfbe","name":"广西桂林市兴安县华江乡猫儿山景区","description":null,"aLevel":"4A","longitude":110.794817,"latitude":25.696752,"cityId":"acd8b276c9264b0db3a6c2754d1b9fdc","cityName":"桂林市","cityCode":"0773","districtId":"48c6d58c04114b1a86a6e9293e073b50","districtName":"兴安县"},{"id":"1c88f54ad47e4a76968decfb42590f2c","name":"芦笛景区","description":null,"aLevel":"4A","longitude":110.272436,"latitude":25.30994,"cityId":"acd8b276c9264b0db3a6c2754d1b9fdc","cityName":"桂林市","cityCode":"0773","districtId":"da3f4da396284cc287a15ea69c859e6d","districtName":"秀峰区"},{"id":"7c944250c2c54899aa38fd91bdc45b78","name":"三庙两馆景区","description":null,"aLevel":"4A","longitude":110.82841,"latitude":24.831581,"cityId":"acd8b276c9264b0db3a6c2754d1b9fdc","cityName":"桂林市","cityCode":"0773","districtId":"802db8a53c7241be806d2a5bf1c019fa","districtName":"恭城瑶族自治县"}]