[{"id":"12cc2198f61f4a2a928309c1d2f613c2","name":"中国宝石城景区","description":null,"aLevel":"4A","longitude":118.850839,"latitude":36.721218,"cityId":"a5f4824603d44feeba147c4fe7dcd6e1","cityName":"潍坊市","cityCode":"0536","districtId":"8044735614394ec0bd4763a4f9a495e4","districtName":"昌乐县"},{"id":"6c42411af71745378aad1c212f6f7131","name":"十笏园文化街区","description":null,"aLevel":"4A","longitude":119.104657,"latitude":36.714456,"cityId":"a5f4824603d44feeba147c4fe7dcd6e1","cityName":"潍坊市","cityCode":"0536","districtId":"6eb275c908b84409b9eee982c450ac9c","districtName":"潍城区"},{"id":"d00a5c108e514fd38c9c1e9becafa757","name":"揽翠湖（天沐）温泉度假村","description":null,"aLevel":"4A","longitude":118.584921,"latitude":36.51291,"cityId":"a5f4824603d44feeba147c4fe7dcd6e1","cityName":"潍坊市","cityCode":"0536","districtId":"1933556ca5be4a988d6239da50a45bdd","districtName":"临朐县"},{"id":"a0d167ce45df4cdd9e302207c8ad03f3","name":"九龙峪景区","description":null,"aLevel":"4A","longitude":114.192847,"latitude":22.31251,"cityId":"a5f4824603d44feeba147c4fe7dcd6e1","cityName":"潍坊市","cityCode":"0536","districtId":"aae13deeeb40409496afbb596171fcbb","districtName":"青州市"},{"id":"c9fd5195744849238b3e38d695c349ac","name":"林海生态博览园景区","description":null,"aLevel":"4A","longitude":118.731859,"latitude":37.144567,"cityId":"a5f4824603d44feeba147c4fe7dcd6e1","cityName":"潍坊市","cityCode":"0536","districtId":"34fb3150c92d40c4bd62b23a8f627d27","districtName":"寿光市"},{"id":"a8a20106ccbf4432841e4fd8db627032","name":"景芝酒之城景区","description":null,"aLevel":"4A","longitude":119.40298,"latitude":36.311622,"cityId":"a5f4824603d44feeba147c4fe7dcd6e1","cityName":"潍坊市","cityCode":"0536","districtId":"888abe40bb83456a916acdca377c9acd","districtName":"安丘市"},{"id":"3739fd453d224932aa8651f201fb78c6","name":"齐鲁酒地景区","description":null,"aLevel":"4A","longitude":119.206591,"latitude":36.531646,"cityId":"a5f4824603d44feeba147c4fe7dcd6e1","cityName":"潍坊市","cityCode":"0536","districtId":"888abe40bb83456a916acdca377c9acd","districtName":"安丘市"},{"id":"7192635872a348f880aa58e271d25a2e","name":"蔬菜高科技示范园景区","description":null,"aLevel":"4A","longitude":118.817608,"latitude":36.857366,"cityId":"a5f4824603d44feeba147c4fe7dcd6e1","cityName":"潍坊市","cityCode":"0536","districtId":"34fb3150c92d40c4bd62b23a8f627d27","districtName":"寿光市"},{"id":"817900c6ff224432a4ec69892f7c3ef9","name":"水上王城巨淀湖风景区","description":null,"aLevel":"4A","longitude":118.691299,"latitude":37.060248,"cityId":"a5f4824603d44feeba147c4fe7dcd6e1","cityName":"潍坊市","cityCode":"0536","districtId":"34fb3150c92d40c4bd62b23a8f627d27","districtName":"寿光市"},{"id":"d7dcf0c56d854d1da91f709e9876459e","name":"恐龙博物馆景区","description":null,"aLevel":"4A","longitude":119.395894,"latitude":36.010223,"cityId":"a5f4824603d44feeba147c4fe7dcd6e1","cityName":"潍坊市","cityCode":"0536","districtId":"8372da6b311d4561ad23e63ecaee638f","districtName":"诸城市"},{"id":"82547738c23d47b7b74671f0a1f41446","name":"潍坊滨海经济技术开发区欢乐海沙滩景区","description":null,"aLevel":"4A","longitude":119.178908,"latitude":37.131163,"cityId":"a5f4824603d44feeba147c4fe7dcd6e1","cityName":"潍坊市","cityCode":"0536","districtId":"2b2d23f61c6f4a94b7454c6aeec2cbef","districtName":"寒亭区"},{"id":"9f924f868ed647f5ac507b64eb6dca14","name":"五龙河景区","description":null,"aLevel":"4A","longitude":119.619411,"latitude":36.24877,"cityId":"a5f4824603d44feeba147c4fe7dcd6e1","cityName":"潍坊市","cityCode":"0536","districtId":"98f973f96bcf45ac9424777eeeab1727","districtName":"高密市"},{"id":"b20ef56e37da47bcaf8c8c32ba2df55d","name":"白浪绿洲湿地公园","description":null,"aLevel":"4A","longitude":119.109418,"latitude":36.6636,"cityId":"a5f4824603d44feeba147c4fe7dcd6e1","cityName":"潍坊市","cityCode":"0536","districtId":"056d4e67e57945c88566446c836bf8f8","districtName":"奎文区"},{"id":"b3eb4d7ee06441948ccf986bebac98e9","name":"潍坊杨家埠民间艺术大观园景区","description":null,"aLevel":"4A","longitude":119.222795,"latitude":36.758527,"cityId":"a5f4824603d44feeba147c4fe7dcd6e1","cityName":"潍坊市","cityCode":"0536","districtId":"2b2d23f61c6f4a94b7454c6aeec2cbef","districtName":"寒亭区"},{"id":"caecd1d6612647f29fce9f1c69de967f","name":"诸城常山文化博物苑","description":null,"aLevel":"4A","longitude":119.404697,"latitude":35.90189,"cityId":"a5f4824603d44feeba147c4fe7dcd6e1","cityName":"潍坊市","cityCode":"0536","districtId":"8372da6b311d4561ad23e63ecaee638f","districtName":"诸城市"},{"id":"aa2b18e998bc416283eca7ecfb68c2df","name":"诸城中国暴龙馆景区","description":null,"aLevel":"4A","longitude":119.338715,"latitude":35.946127,"cityId":"a5f4824603d44feeba147c4fe7dcd6e1","cityName":"潍坊市","cityCode":"0536","districtId":"8372da6b311d4561ad23e63ecaee638f","districtName":"诸城市"},{"id":"b6bf47f61dcc46a490beac77344a7d7b","name":"青云山民俗游乐园景区","description":null,"aLevel":"4A","longitude":119.246974,"latitude":36.4382,"cityId":"a5f4824603d44feeba147c4fe7dcd6e1","cityName":"潍坊市","cityCode":"0536","districtId":"888abe40bb83456a916acdca377c9acd","districtName":"安丘市"},{"id":"e14d7d62cc764a67ac8aaf6d32c7ee40","name":"潍坊金宝乐园","description":null,"aLevel":"4A","longitude":119.124954,"latitude":36.65628,"cityId":"a5f4824603d44feeba147c4fe7dcd6e1","cityName":"潍坊市","cityCode":"0536","districtId":"056d4e67e57945c88566446c836bf8f8","districtName":"奎文区"},{"id":"ddccf3abf0b74c638befcece9b3485fe","name":"仰天山森林公园景区","description":null,"aLevel":"4A","longitude":118.479637,"latitude":36.685178,"cityId":"a5f4824603d44feeba147c4fe7dcd6e1","cityName":"潍坊市","cityCode":"0536","districtId":"aae13deeeb40409496afbb596171fcbb","districtName":"青州市"},{"id":"894a87e4b18446bf89beeb005a89b822","name":"泰和山景区","description":null,"aLevel":"4A","longitude":109.468865,"latitude":31.297293,"cityId":"a5f4824603d44feeba147c4fe7dcd6e1","cityName":"潍坊市","cityCode":"0536","districtId":"aae13deeeb40409496afbb596171fcbb","districtName":"青州市"}]