[{"id":"8e8199e4756d4f1196b10d39de7f69ac","name":"碧瑶湾景区","description":null,"aLevel":"4A","longitude":106.948855,"latitude":30.956127,"cityId":"a00fb37d0ab0425ab410c9212dd75802","cityName":"达州市","cityCode":"0818","districtId":"9fd7e81b861946ee9bc517045a80d044","districtName":"渠县"},{"id":"e39e8b26960747f781cb16402ddab6dd","name":"八台山景区","description":null,"aLevel":"4A","longitude":108.138061,"latitude":31.949254,"cityId":"a00fb37d0ab0425ab410c9212dd75802","cityName":"达州市","cityCode":"0818","districtId":"7d383a8c4f52495d8af0eee9198ae69e","districtName":"万源市"},{"id":"b9e6efacaf954ca3ac1c1bd7ac1e54fe","name":"真佛山景区","description":null,"aLevel":"4A","longitude":107.607851,"latitude":31.027462,"cityId":"a00fb37d0ab0425ab410c9212dd75802","cityName":"达州市","cityCode":"0818","districtId":"2e6daa302d564fd391632eadb505a938","districtName":"达川区"},{"id":"38f705ed686c4cbd892b3430bf8cea55","name":"木王山景区","description":null,"aLevel":"4A","longitude":108.354318,"latitude":32.190256,"cityId":"a00fb37d0ab0425ab410c9212dd75802","cityName":"达州市","cityCode":"0818","districtId":"7d383a8c4f52495d8af0eee9198ae69e","districtName":"万源市"},{"id":"85184889d22444099e063c1bb5e92635","name":"峨城景区","description":null,"aLevel":"4A","longitude":107.746568,"latitude":31.217767,"cityId":"a00fb37d0ab0425ab410c9212dd75802","cityName":"达州市","cityCode":"0818","districtId":"1b625881a4664852a580a1d0d493f076","districtName":"宣汉县"},{"id":"342ae5dee0e148148b764815628db668","name":"华蓥山旅游区","description":null,"aLevel":"4A","longitude":107.059608,"latitude":30.893441,"cityId":"a00fb37d0ab0425ab410c9212dd75802","cityName":"达州市","cityCode":"0818","districtId":"9fd7e81b861946ee9bc517045a80d044","districtName":"渠县"},{"id":"43892cc3bab64f63948060046fa76b3d","name":"洋烈水乡景区","description":null,"aLevel":"4A","longitude":107.686582,"latitude":31.353232,"cityId":"a00fb37d0ab0425ab410c9212dd75802","cityName":"达州市","cityCode":"0818","districtId":"1b625881a4664852a580a1d0d493f076","districtName":"宣汉县"},{"id":"bf3969d2383e417e85f961c11360ecb9","name":"賨人谷景区","description":null,"aLevel":"4A","longitude":107.089601,"latitude":30.858163,"cityId":"a00fb37d0ab0425ab410c9212dd75802","cityName":"达州市","cityCode":"0818","districtId":"9fd7e81b861946ee9bc517045a80d044","districtName":"渠县"},{"id":"a0c9fb4fe8244311a18f71c3ead44ef4","name":"红军公园景区","description":null,"aLevel":"4A","longitude":108.051625,"latitude":32.073359,"cityId":"a00fb37d0ab0425ab410c9212dd75802","cityName":"达州市","cityCode":"0818","districtId":"7d383a8c4f52495d8af0eee9198ae69e","districtName":"万源市"},{"id":"10dfb36253664fb1a18e7c3606671772","name":"五峰山景区","description":null,"aLevel":"4A","longitude":107.353018,"latitude":30.777611,"cityId":"a00fb37d0ab0425ab410c9212dd75802","cityName":"达州市","cityCode":"0818","districtId":"239aa92b2cb549f780c087ffd356c4cc","districtName":"大竹县"},{"id":"69c96bdf9c64464e8f947dca49657b8f","name":"磐石旅游区","description":null,"aLevel":"4A","longitude":107.597372,"latitude":31.230389,"cityId":"a00fb37d0ab0425ab410c9212dd75802","cityName":"达州市","cityCode":"0818","districtId":"de353ea188084153ab3b6254ccb775ce","districtName":"通川区"},{"id":"17bb938c473540bdb6eccc1dfc852110","name":"文峰山文化旅游景区","description":null,"aLevel":"4A","longitude":106.985566,"latitude":30.83383,"cityId":"a00fb37d0ab0425ab410c9212dd75802","cityName":"达州市","cityCode":"0818","districtId":"9fd7e81b861946ee9bc517045a80d044","districtName":"渠县"},{"id":"a079d37fd39e487996b2effdcab4cbc5","name":"巴山大峡谷旅游景区","description":null,"aLevel":"4A","longitude":108.284408,"latitude":31.663228,"cityId":"a00fb37d0ab0425ab410c9212dd75802","cityName":"达州市","cityCode":"0818","districtId":"1b625881a4664852a580a1d0d493f076","districtName":"宣汉县"}]