[{"id":"d8f756893990443d8243306713742bba","name":"大佛寺文化旅游区","description":null,"aLevel":"4A","longitude":109.445074,"latitude":36.661619,"cityId":"29d6377a2f834b93971612c70dab8817","cityName":"延安市","cityCode":"0911","districtId":"c24ee61c4fc74d77977057c4006c1c11","districtName":"宝塔区"},{"id":"d909ab3ee46b4ddaa40a34e5baccad50","name":"龙虎山风景区","description":null,"aLevel":"4A","longitude":109.655458,"latitude":37.136694,"cityId":"29d6377a2f834b93971612c70dab8817","cityName":"延安市","cityCode":"0911","districtId":"9cffc1d8b4fe439f9aa2e7fbf99e68e2","districtName":"子长市"},{"id":"3572cfb81ea74e4f8bf03d81a264fb1d","name":"宝塔山景区","description":null,"aLevel":"4A","longitude":109.497346,"latitude":36.593453,"cityId":"29d6377a2f834b93971612c70dab8817","cityName":"延安市","cityCode":"0911","districtId":"c24ee61c4fc74d77977057c4006c1c11","districtName":"宝塔区"},{"id":"1903a839ded741fc80634e6a6152b98a","name":"花海果乡景区","description":null,"aLevel":"4A","longitude":109.44858,"latitude":35.774248,"cityId":"29d6377a2f834b93971612c70dab8817","cityName":"延安市","cityCode":"0911","districtId":"f361b137124b4146846c5e5cf75e1691","districtName":"洛川县"},{"id":"f516c7398ffa49b594f956c383350a45","name":"怀来黄龙山庄景区","description":null,"aLevel":"4A","longitude":109.84029,"latitude":35.584655,"cityId":"29d6377a2f834b93971612c70dab8817","cityName":"延安市","cityCode":"0911","districtId":"9bcac637ec4947178289daa0b973330c","districtName":"黄龙县"},{"id":"035f96047e304471b52f611ffa78a415","name":"黄河壶口瀑布旅游区","description":null,"aLevel":"4A","longitude":110.465956,"latitude":36.071823,"cityId":"29d6377a2f834b93971612c70dab8817","cityName":"延安市","cityCode":"0911","districtId":"fc145365ba854c79a79afd102c802b95","districtName":"宜川县"},{"id":"0f5043f11b004cd3882aa7fcd5c62d2f","name":"黄龙山景区","description":null,"aLevel":"4A","longitude":109.781189,"latitude":35.54796,"cityId":"29d6377a2f834b93971612c70dab8817","cityName":"延安市","cityCode":"0911","districtId":"9bcac637ec4947178289daa0b973330c","districtName":"黄龙县"},{"id":"b45205fc9e2340ac98c0fe083087ff2e","name":"陕西黄陵森林公园景区","description":null,"aLevel":"4A","longitude":108.930018,"latitude":35.56701,"cityId":"29d6377a2f834b93971612c70dab8817","cityName":"延安市","cityCode":"0911","districtId":"ead829ec791b42f2becb4446adc2f6dd","districtName":"黄陵县"}]