[{"id":"5574b9a1f75042b1a8280c653790b1b4","name":"天涯山景区","description":null,"aLevel":"4A","longitude":112.80568,"latitude":38.72317,"cityId":"f3e35132b30941c8babdce3dd6f60fde","cityName":"忻州市","cityCode":"0350","districtId":"4f8ce70018ed4d168df44ab1101fb04d","districtName":"原平市"},{"id":"ef48f08b024745ca80d01680f6dabc45","name":"汾河源头景区","description":null,"aLevel":"4A","longitude":112.097805,"latitude":38.820093,"cityId":"f3e35132b30941c8babdce3dd6f60fde","cityName":"忻州市","cityCode":"0350","districtId":"4a55afdeb39c48f3a98059c9b8ffcbda","districtName":"宁武县"},{"id":"3d6847acea314cf69efd221f463164d8","name":"禹王洞风景区","description":null,"aLevel":"4A","longitude":112.811092,"latitude":38.306415,"cityId":"f3e35132b30941c8babdce3dd6f60fde","cityName":"忻州市","cityCode":"0350","districtId":"1cda4ad1abc34bd3a27bc600deff8034","districtName":"忻府区"},{"id":"88b559693bcd45b085502d5f1ba79153","name":"万年冰洞景区","description":null,"aLevel":"4A","longitude":112.155466,"latitude":38.946617,"cityId":"f3e35132b30941c8babdce3dd6f60fde","cityName":"忻州市","cityCode":"0350","districtId":"4a55afdeb39c48f3a98059c9b8ffcbda","districtName":"宁武县"},{"id":"9deb6f81324449afbfaf363d2d44c2fd","name":"凤凰山景区","description":null,"aLevel":"4A","longitude":112.859198,"latitude":38.606274,"cityId":"f3e35132b30941c8babdce3dd6f60fde","cityName":"忻州市","cityCode":"0350","districtId":"b0041d2b820d47178e4f07204232b96c","districtName":"定襄县"},{"id":"8eb4ca8b48664dbc8a424e9a24f9648b","name":"云中河景区","description":null,"aLevel":"4A","longitude":112.706199,"latitude":38.480625,"cityId":"f3e35132b30941c8babdce3dd6f60fde","cityName":"忻州市","cityCode":"0350","districtId":"1cda4ad1abc34bd3a27bc600deff8034","districtName":"忻府区"},{"id":"7bb86feee5814f4e95f5862f1421c28f","name":"芦芽山景区","description":null,"aLevel":"4A","longitude":112.236627,"latitude":38.867803,"cityId":"f3e35132b30941c8babdce3dd6f60fde","cityName":"忻州市","cityCode":"0350","districtId":"4a55afdeb39c48f3a98059c9b8ffcbda","districtName":"宁武县"},{"id":"00b6d44c84bb4776a82d87058672ca24","name":"河边民俗博物馆景区","description":null,"aLevel":"4A","longitude":113.109741,"latitude":38.589969,"cityId":"f3e35132b30941c8babdce3dd6f60fde","cityName":"忻州市","cityCode":"0350","districtId":"b0041d2b820d47178e4f07204232b96c","districtName":"定襄县"},{"id":"53198f1a765b4d3faffa9849a25346d4","name":"上汽通用五菱宝骏基地","description":null,"aLevel":"4A","longitude":112.937348,"latitude":39.051002,"cityId":"f3e35132b30941c8babdce3dd6f60fde","cityName":"忻州市","cityCode":"0350","districtId":"538632f369bd48f881f78e36393d5a40","districtName":"代县"},{"id":"26fecbdf6c44416c830fe668549cb869","name":"滹源景区","description":null,"aLevel":"4A","longitude":113.295243,"latitude":39.182907,"cityId":"f3e35132b30941c8babdce3dd6f60fde","cityName":"忻州市","cityCode":"0350","districtId":"9ab720c742754f0789624b7e1eced783","districtName":"繁峙县"}]