[{"id":"a47a3fc66ff34e4bbef41a3918f7f6bf","name":"中国绵竹年画村景区","description":null,"aLevel":"4A","longitude":104.223148,"latitude":31.278458,"cityId":"2382de584f614720b5078ceffacd329b","cityName":"德阳市","cityCode":"0838","districtId":"68dac29b4b7e4ef7b43b005dd5d4abf4","districtName":"绵竹市"},{"id":"f25557ac203d40e0a56022d2e5cf1131","name":"三水易家河坝乡村旅游区","description":null,"aLevel":"4A","longitude":104.382994,"latitude":30.945736,"cityId":"2382de584f614720b5078ceffacd329b","cityName":"德阳市","cityCode":"0838","districtId":"087821cb37cf412196694f4942c4f071","districtName":"广汉市"},{"id":"ce5c3ff08ecc4a01a1646a6770f7a56b","name":"九龙山——麓棠山旅游区","description":null,"aLevel":"4A","longitude":104.105513,"latitude":31.293722,"cityId":"2382de584f614720b5078ceffacd329b","cityName":"德阳市","cityCode":"0838","districtId":"68dac29b4b7e4ef7b43b005dd5d4abf4","districtName":"绵竹市"},{"id":"f587a8f3cd1147ec8cc68d86ab65284e","name":"白马关景区","description":null,"aLevel":"4A","longitude":104.470673,"latitude":31.280049,"cityId":"2382de584f614720b5078ceffacd329b","cityName":"德阳市","cityCode":"0838","districtId":"65f7acf14058412fadc2ecfdcb3428d6","districtName":"罗江区"},{"id":"27fcbee2538e493d8cf1a24a48f56199","name":"金色清平景区","description":null,"aLevel":"4A","longitude":104.114693,"latitude":31.539405,"cityId":"2382de584f614720b5078ceffacd329b","cityName":"德阳市","cityCode":"0838","districtId":"68dac29b4b7e4ef7b43b005dd5d4abf4","districtName":"绵竹市"},{"id":"5a7e47d228d74fbb8a4bd7f7e4714d3d","name":"银杉森林公园景区","description":null,"aLevel":"4A","longitude":104.847014,"latitude":30.796433,"cityId":"2382de584f614720b5078ceffacd329b","cityName":"德阳市","cityCode":"0838","districtId":"9ca5c7c54e104bf7bdc0a1f906d4c8e4","districtName":"中江县"},{"id":"cea1bd50f2c749628796fcefb526dbd1","name":"广汉三星堆博物馆景区","description":null,"aLevel":"4A","longitude":104.218621,"latitude":31.001439,"cityId":"2382de584f614720b5078ceffacd329b","cityName":"德阳市","cityCode":"0838","districtId":"087821cb37cf412196694f4942c4f071","districtName":"广汉市"}]