[{"id":"9519560bf1c64486b2300c3588426c8b","name":"大庙口镇舜皇山景区","description":null,"aLevel":"4A","longitude":111.045729,"latitude":26.397253,"cityId":"f3b99ae0f36b49a2ba86b0fa180a5eb9","cityName":"永州市","cityCode":"0746","districtId":"0b329cc14db94f429f39eee0a7e5fd48","districtName":"东安县"},{"id":"8b489a8ce19b4a83a34d191e692a08d1","name":"真达神鹿谷旅游景区","description":null,"aLevel":"4A","longitude":112.082467,"latitude":25.24322,"cityId":"f3b99ae0f36b49a2ba86b0fa180a5eb9","cityName":"永州市","cityCode":"0746","districtId":"29114d29080b454f9a4743140eb72b6d","districtName":"蓝山县"},{"id":"e633f3f4d5d044358f132fd7154632a3","name":"祁阳县浯溪碑林","description":null,"aLevel":"4A","longitude":111.840253,"latitude":26.580292,"cityId":"f3b99ae0f36b49a2ba86b0fa180a5eb9","cityName":"永州市","cityCode":"0746","districtId":"ebc71ba970da42649d22a1724e5af54b","districtName":"祁阳市"},{"id":"04b35f07e81d4335aef73a9804055d1d","name":"勾蓝瑶寨景区","description":null,"aLevel":"4A","longitude":111.183327,"latitude":25.095087,"cityId":"f3b99ae0f36b49a2ba86b0fa180a5eb9","cityName":"永州市","cityCode":"0746","districtId":"03905b9c1e174110ac9f805ba5ed96fc","districtName":"江永县"},{"id":"5f79fce84d704fb08d6a42f9b9301205","name":"阳明山旅游区","description":null,"aLevel":"4A","longitude":111.921786,"latitude":26.107607,"cityId":"f3b99ae0f36b49a2ba86b0fa180a5eb9","cityName":"永州市","cityCode":"0746","districtId":"2760e7c229394b15bf99e4b138316948","districtName":"双牌县"},{"id":"8e46c7c801574e369f29499f277572d6","name":"柳宗元文化旅游区","description":null,"aLevel":"4A","longitude":111.610703,"latitude":26.216471,"cityId":"f3b99ae0f36b49a2ba86b0fa180a5eb9","cityName":"永州市","cityCode":"0746","districtId":"d8e91e12e7334fe0a7fc6d2fc6180fc9","districtName":"零陵区"},{"id":"5ace7687b78746aabaac4a23917888d2","name":"桐子坳景区","description":null,"aLevel":"4A","longitude":111.852088,"latitude":26.038641,"cityId":"f3b99ae0f36b49a2ba86b0fa180a5eb9","cityName":"永州市","cityCode":"0746","districtId":"2760e7c229394b15bf99e4b138316948","districtName":"双牌县"},{"id":"95da9e32e9be4b97b2356511f0bb3c1f","name":"东山景区","description":null,"aLevel":"4A","longitude":111.617714,"latitude":26.217835,"cityId":"f3b99ae0f36b49a2ba86b0fa180a5eb9","cityName":"永州市","cityCode":"0746","districtId":"d8e91e12e7334fe0a7fc6d2fc6180fc9","districtName":"零陵区"},{"id":"d2f76ece23d143d589a7f44494a30a7f","name":"舜帝陵景区","description":null,"aLevel":"4A","longitude":111.945925,"latitude":25.570817,"cityId":"f3b99ae0f36b49a2ba86b0fa180a5eb9","cityName":"永州市","cityCode":"0746","districtId":"03ef24d437184f3cb42ab047a1c29301","districtName":"宁远县"}]