[{"id":"793736519cc64c5e8d4f04392876a621","name":"金刚台猫儿峰景区","description":null,"aLevel":"4A","longitude":115.471649,"latitude":31.752401,"cityId":"e5920abec16d4fe689b0e6e425aefb76","cityName":"信阳市","cityCode":"0376","districtId":"27274cbfa7094c7fa2d75f6872466f67","districtName":"商城县"},{"id":"0f18bc29e8dc4e9da88d0d796f2b1c97","name":"灵龙湖景区","description":null,"aLevel":"4A","longitude":114.05867,"latitude":32.116885,"cityId":"e5920abec16d4fe689b0e6e425aefb76","cityName":"信阳市","cityCode":"0376","districtId":"1d04d98b6fbd42f195d9085827bdcef7","districtName":"浉河区"},{"id":"7dce0b488fe14c5aa78813708c6e06ba","name":"黄柏山旅游区","description":null,"aLevel":"4A","longitude":115.326327,"latitude":31.451431,"cityId":"e5920abec16d4fe689b0e6e425aefb76","cityName":"信阳市","cityCode":"0376","districtId":"27274cbfa7094c7fa2d75f6872466f67","districtName":"商城县"},{"id":"234c4f53a968443382eb2aa2a289e1e8","name":"鸡公山桃花寨风景区","description":null,"aLevel":"4A","longitude":113.979237,"latitude":31.835168,"cityId":"e5920abec16d4fe689b0e6e425aefb76","cityName":"信阳市","cityCode":"0376","districtId":"1d04d98b6fbd42f195d9085827bdcef7","districtName":"浉河区"},{"id":"9f4dce04c0ea43d0997341183ef15225","name":"西九华山风景区","description":null,"aLevel":"4A","longitude":115.810736,"latitude":31.799146,"cityId":"e5920abec16d4fe689b0e6e425aefb76","cityName":"信阳市","cityCode":"0376","districtId":"a195278ec54e4b5caab7296aa2719829","districtName":"固始县"},{"id":"84875d9befe24ba497d847c183635c29","name":"鸡公山景区","description":null,"aLevel":"4A","longitude":114.05867,"latitude":32.116885,"cityId":"e5920abec16d4fe689b0e6e425aefb76","cityName":"信阳市","cityCode":"0376","districtId":"1d04d98b6fbd42f195d9085827bdcef7","districtName":"浉河区"},{"id":"23dd02ccefc5445490685e7792fac64a","name":"鄂豫皖苏区首府景区","description":null,"aLevel":"4A","longitude":114.877624,"latitude":31.617034,"cityId":"e5920abec16d4fe689b0e6e425aefb76","cityName":"信阳市","cityCode":"0376","districtId":"6e26215ebf4e419fae0092ad6e55138a","districtName":"新县"},{"id":"93881828410e41569ace652ddc7be064","name":"大苏山森林公园景区","description":null,"aLevel":"4A","longitude":114.811205,"latitude":31.869069,"cityId":"e5920abec16d4fe689b0e6e425aefb76","cityName":"信阳市","cityCode":"0376","districtId":"d03a485bf81140b18be05ab172e9a7cf","districtName":"光山县"},{"id":"7c73d3de55894be4a4597653018d0a4b","name":"信阳灵山风景区","description":null,"aLevel":"4A","longitude":114.091058,"latitude":32.148624,"cityId":"e5920abec16d4fe689b0e6e425aefb76","cityName":"信阳市","cityCode":"0376","districtId":"9eed535e75454eba8d3170ffda0623ea","districtName":"平桥区"},{"id":"168b32f3e78c40c69e7f808776d5f7e6","name":"许世友将军故里景区","description":null,"aLevel":"4A","longitude":114.992905,"latitude":31.487805,"cityId":"e5920abec16d4fe689b0e6e425aefb76","cityName":"信阳市","cityCode":"0376","districtId":"6e26215ebf4e419fae0092ad6e55138a","districtName":"新县"},{"id":"4afd62bf652e4e50ae1f8974c5ced094","name":"金刚台（西河）生态旅游区","description":null,"aLevel":"4A","longitude":115.540837,"latitude":31.755242,"cityId":"e5920abec16d4fe689b0e6e425aefb76","cityName":"信阳市","cityCode":"0376","districtId":"27274cbfa7094c7fa2d75f6872466f67","districtName":"商城县"},{"id":"03dd754541a044b58510c8078efc5b4a","name":"南湾湖风景区","description":null,"aLevel":"4A","longitude":114.008423,"latitude":32.132981,"cityId":"e5920abec16d4fe689b0e6e425aefb76","cityName":"信阳市","cityCode":"0376","districtId":"1d04d98b6fbd42f195d9085827bdcef7","districtName":"浉河区"},{"id":"c7eeeadc507e4f3daddcf666e324282b","name":"大别山露营公园景区","description":null,"aLevel":"4A","longitude":114.904967,"latitude":31.599708,"cityId":"e5920abec16d4fe689b0e6e425aefb76","cityName":"信阳市","cityCode":"0376","districtId":"6e26215ebf4e419fae0092ad6e55138a","districtName":"新县"}]