[{"id":"fcf8b3cea05541cb830f23375d35db4d","name":"喀喇沁亲王府景区","description":null,"aLevel":"4A","longitude":118.507412,"latitude":41.839978,"cityId":"d8c4edd13e67406f957a4088af7e9709","cityName":"赤峰市","cityCode":"0476","districtId":"d255fd0e2c7c4a3495fb492dbbf87ec5","districtName":"喀喇沁旗"},{"id":"63a98c061a9a4bf0b2da30791ee5e08e","name":"达里湖景区","description":null,"aLevel":"4A","longitude":116.751105,"latitude":43.245061,"cityId":"d8c4edd13e67406f957a4088af7e9709","cityName":"赤峰市","cityCode":"0476","districtId":"901c8005cb3e4ca7ba7370ed1f752f4d","districtName":"克什克腾旗"},{"id":"8be6876d5b1d41258e003b4bb8913f9d","name":"敖汉温泉城景区","description":null,"aLevel":"4A","longitude":119.986684,"latitude":41.932672,"cityId":"d8c4edd13e67406f957a4088af7e9709","cityName":"赤峰市","cityCode":"0476","districtId":"5a64a677a53d4cb88e692943418edfff","districtName":"敖汉旗"},{"id":"730517e2462a463cbb22b1e761ed3710","name":"红山玉龙沙湖国际生态文化旅游区","description":null,"aLevel":"4A","longitude":119.056156,"latitude":43.126234,"cityId":"d8c4edd13e67406f957a4088af7e9709","cityName":"赤峰市","cityCode":"0476","districtId":"4d7437673c0d4b5a85c2189d95b4cad8","districtName":"翁牛特旗"},{"id":"151f1201b75c41e9b8c4c04b23c15998","name":"美林谷滑雪场景区","description":null,"aLevel":"4A","longitude":118.28017,"latitude":41.684865,"cityId":"d8c4edd13e67406f957a4088af7e9709","cityName":"赤峰市","cityCode":"0476","districtId":"d255fd0e2c7c4a3495fb492dbbf87ec5","districtName":"喀喇沁旗"},{"id":"242e116ed19749d393fdc45067587a82","name":"玉龙沙湖景区","description":null,"aLevel":"4A","longitude":119.073462,"latitude":43.130635,"cityId":"d8c4edd13e67406f957a4088af7e9709","cityName":"赤峰市","cityCode":"0476","districtId":"4d7437673c0d4b5a85c2189d95b4cad8","districtName":"翁牛特旗"},{"id":"02816757613d45c28728d0370e147501","name":"紫蒙湖景区","description":null,"aLevel":"4A","longitude":118.616851,"latitude":41.405004,"cityId":"d8c4edd13e67406f957a4088af7e9709","cityName":"赤峰市","cityCode":"0476","districtId":"25d6249c83a049fd8f33f0537484ddd0","districtName":"宁城县"},{"id":"b3e095815b7c41c0ba79d2b79b53303b","name":"道须沟景区","description":null,"aLevel":"4A","longitude":118.335536,"latitude":41.456746,"cityId":"d8c4edd13e67406f957a4088af7e9709","cityName":"赤峰市","cityCode":"0476","districtId":"25d6249c83a049fd8f33f0537484ddd0","districtName":"宁城县"},{"id":"473c2a46e1e94459a42dfc3d8e2182ae","name":"召庙北五台景区","description":null,"aLevel":"4A","longitude":119.368994,"latitude":43.849598,"cityId":"d8c4edd13e67406f957a4088af7e9709","cityName":"赤峰市","cityCode":"0476","districtId":"5a29b86a05a149779d6ee2e7bc109cfb","districtName":"巴林左旗"}]