[{"id":"9f7e9187e9ac4a339de92c2f3486076c","name":"农夫山泉峨眉山工业旅游区","description":null,"aLevel":"4A","longitude":103.334737,"latitude":29.516007,"cityId":"4d941d71ee7c4c3897d69dce4f6264f8","cityName":"乐山市","cityCode":"0833","districtId":"6a6a541d344040f68c2d81842d77dbe5","districtName":"峨眉山市"},{"id":"27b95c37b4e848afa7082f7ca9516be7","name":"罗城古镇","description":null,"aLevel":"4A","longitude":104.030536,"latitude":29.382785,"cityId":"4d941d71ee7c4c3897d69dce4f6264f8","cityName":"乐山市","cityCode":"0833","districtId":"3b7ce3ad0d0745e080d1ad423f0257b2","districtName":"犍为县"},{"id":"7437e3875d3a49cab44933afe14f6adf","name":"黑竹沟景区","description":null,"aLevel":"4A","longitude":103.000916,"latitude":29.045922,"cityId":"4d941d71ee7c4c3897d69dce4f6264f8","cityName":"乐山市","cityCode":"0833","districtId":"78a81bd47eeb4813bf7a22034b42956d","districtName":"峨边彝族自治县"},{"id":"2eb3b27b2b894a638e3e34796b43e242","name":"嘉阳·桫椤湖景区","description":null,"aLevel":"4A","longitude":103.767067,"latitude":29.202471,"cityId":"4d941d71ee7c4c3897d69dce4f6264f8","cityName":"乐山市","cityCode":"0833","districtId":"3b7ce3ad0d0745e080d1ad423f0257b2","districtName":"犍为县"},{"id":"5b150ff7b49748f6b7d83b6546d3bfa4","name":"东方佛都景区","description":null,"aLevel":"4A","longitude":108.651829,"latitude":19.095187,"cityId":"4d941d71ee7c4c3897d69dce4f6264f8","cityName":"乐山市","cityCode":"0833","districtId":"36a9181fff774f90bc83e7e013d02e4a","districtName":"市中区"},{"id":"f6dac3496ad549e896534d6757d211f0","name":"乐山乌木文化博览苑景区","description":null,"aLevel":"4A","longitude":103.656194,"latitude":29.585265,"cityId":"4d941d71ee7c4c3897d69dce4f6264f8","cityName":"乐山市","cityCode":"0833","districtId":"36a9181fff774f90bc83e7e013d02e4a","districtName":"市中区"},{"id":"b261371576ab48c3a8d36fa3b0110c9d","name":"江夹天福观光茶园景区","description":null,"aLevel":"4A","longitude":103.691254,"latitude":29.792545,"cityId":"4d941d71ee7c4c3897d69dce4f6264f8","cityName":"乐山市","cityCode":"0833","districtId":"02d6e9a37ca64d08bbf47ec3bc156e47","districtName":"夹江县"},{"id":"5d21db061b444b36809a7669b085ab28","name":"四川旅博天地景区","description":null,"aLevel":"4A","longitude":103.484557,"latitude":29.601189,"cityId":"4d941d71ee7c4c3897d69dce4f6264f8","cityName":"乐山市","cityCode":"0833","districtId":"6a6a541d344040f68c2d81842d77dbe5","districtName":"峨眉山市"},{"id":"f86a2794bc484509b499db9b28a2ccf3","name":"桃源山居景区","description":null,"aLevel":"4A","longitude":103.892382,"latitude":28.94947,"cityId":"4d941d71ee7c4c3897d69dce4f6264f8","cityName":"乐山市","cityCode":"0833","districtId":"44e3864d4d08479daf9833e7817b2dfe","districtName":"沐川县"},{"id":"a7fd79d60d9e40b295ffeb0f2d1f225d","name":"大渡河金口大峡谷旅游景区","description":null,"aLevel":"4A","longitude":103.024264,"latitude":29.287481,"cityId":"4d941d71ee7c4c3897d69dce4f6264f8","cityName":"乐山市","cityCode":"0833","districtId":"7bbe96c214af48e692a121c3a538abd9","districtName":"金口河区"},{"id":"445c27d872a346fbb4ecf0d12dbddcab","name":"大佛禅院佛教文化旅游区","description":null,"aLevel":"4A","longitude":103.498558,"latitude":29.590197,"cityId":"4d941d71ee7c4c3897d69dce4f6264f8","cityName":"乐山市","cityCode":"0833","districtId":"6a6a541d344040f68c2d81842d77dbe5","districtName":"峨眉山市"},{"id":"c27c11d3f59e41f5b8a1fdbf8e836cac","name":"沙湾郭沫若故居旅游景区","description":null,"aLevel":"4A","longitude":103.547397,"latitude":29.411735,"cityId":"4d941d71ee7c4c3897d69dce4f6264f8","cityName":"乐山市","cityCode":"0833","districtId":"83bd0dddd581457d83b73939f807eccd","districtName":"沙湾区"}]