[{"id":"14f789aaa9ad4a109e815402a0e5fcc6","name":"禾泉农庄景区","description":null,"aLevel":"4A","longitude":117.236163,"latitude":32.922543,"cityId":"d4fa3d30378b4914995ec9348ee55e1f","cityName":"蚌埠市","cityCode":"0552","districtId":"b5e5458f1f2b469bb0fa4b156e13e773","districtName":"禹会区"},{"id":"7ca611f060394baf870aace9578d87e3","name":"龙子湖风景区","description":null,"aLevel":"4A","longitude":117.41255,"latitude":32.902912,"cityId":"d4fa3d30378b4914995ec9348ee55e1f","cityName":"蚌埠市","cityCode":"0552","districtId":"ee318a2034e043b886886a23f7223bed","districtName":"龙子湖区"},{"id":"5b13e03f17844c669ee4ca0330a6760c","name":"张公山风景区","description":null,"aLevel":"4A","longitude":114.268019,"latitude":22.348295,"cityId":"d4fa3d30378b4914995ec9348ee55e1f","cityName":"蚌埠市","cityCode":"0552","districtId":"b5e5458f1f2b469bb0fa4b156e13e773","districtName":"禹会区"},{"id":"acd0c4325afb467eb54ae695e3104cf2","name":"花鼓灯嘉年华景区","description":null,"aLevel":"4A","longitude":117.344159,"latitude":32.901466,"cityId":"d4fa3d30378b4914995ec9348ee55e1f","cityName":"蚌埠市","cityCode":"0552","districtId":"8581a6ee4e3149a09d6ff9aeb036c23b","districtName":"蚌山区"},{"id":"c5ea8676720745feb258e8f640e94974","name":"市辖区博物馆","description":null,"aLevel":"4A","longitude":117.385952,"latitude":32.912056,"cityId":"d4fa3d30378b4914995ec9348ee55e1f","cityName":"蚌埠市","cityCode":"0552","districtId":"8581a6ee4e3149a09d6ff9aeb036c23b","districtName":"蚌山区"}]