[{"id":"9c33f54af472406996da23b070f77b21","name":"振国壹号庄园","description":null,"aLevel":"4A","longitude":117.251252,"latitude":30.739268,"cityId":"3697ee2e569a488aa05aadd183305ddf","cityName":"铜陵市","cityCode":"0562","districtId":"72e3a19cc5964c2db214b7c27462ad99","districtName":"枞阳县"},{"id":"65eed5096db349cbbdb134e388bb1084","name":"永泉旅游度假区","description":null,"aLevel":"4A","longitude":118.029281,"latitude":30.963985,"cityId":"3697ee2e569a488aa05aadd183305ddf","cityName":"铜陵市","cityCode":"0562","districtId":"6abc50c8cba1489d8b1bf37a4c25c62a","districtName":"义安区"},{"id":"a45e0c001be54eda92a33875284e41fa","name":"西湖湿地景区","description":null,"aLevel":"4A","longitude":117.852917,"latitude":30.979763,"cityId":"3697ee2e569a488aa05aadd183305ddf","cityName":"铜陵市","cityCode":"0562","districtId":"2883d1bb89094b27a9b8d153bcff5ace","districtName":"铜官区"},{"id":"1d8761da34844b9ab07d70e3c6c01cbd","name":"市辖区天井湖公园","description":null,"aLevel":"4A","longitude":117.799271,"latitude":30.936432,"cityId":"3697ee2e569a488aa05aadd183305ddf","cityName":"铜陵市","cityCode":"0562","districtId":"2883d1bb89094b27a9b8d153bcff5ace","districtName":"铜官区"},{"id":"c9c7fabf29e147d791a78ef275cfbd54","name":"汉武文化生态园","description":null,"aLevel":"4A","longitude":117.250191,"latitude":30.705466,"cityId":"3697ee2e569a488aa05aadd183305ddf","cityName":"铜陵市","cityCode":"0562","districtId":"72e3a19cc5964c2db214b7c27462ad99","districtName":"枞阳县"},{"id":"5af55a48d63043dca94fca2870b66220","name":"大通古镇风景区","description":null,"aLevel":"4A","longitude":117.732862,"latitude":30.814239,"cityId":"3697ee2e569a488aa05aadd183305ddf","cityName":"铜陵市","cityCode":"0562","districtId":"d36078219b7a41c59d442056c3a64441","districtName":"郊区"},{"id":"61c5659191024007a468d10a27940ed0","name":"凤凰山景区","description":null,"aLevel":"4A","longitude":118.025895,"latitude":30.859415,"cityId":"3697ee2e569a488aa05aadd183305ddf","cityName":"铜陵市","cityCode":"0562","districtId":"6abc50c8cba1489d8b1bf37a4c25c62a","districtName":"义安区"},{"id":"559a1dec9ec34bf9a7d3dca34d4c67ff","name":"浮山风景区","description":null,"aLevel":"4A","longitude":117.277322,"latitude":30.919169,"cityId":"3697ee2e569a488aa05aadd183305ddf","cityName":"铜陵市","cityCode":"0562","districtId":"72e3a19cc5964c2db214b7c27462ad99","districtName":"枞阳县"},{"id":"ff2b104ab49a40b0b984e1b5313333f7","name":"博物馆景区","description":null,"aLevel":"4A","longitude":117.856541,"latitude":30.936772,"cityId":"3697ee2e569a488aa05aadd183305ddf","cityName":"铜陵市","cityCode":"0562","districtId":"2883d1bb89094b27a9b8d153bcff5ace","districtName":"铜官区"}]