[{"id":"490d769a578349e1b1aa02942810ca4c","name":"重庆梁平百里竹海观音洞景区","description":null,"aLevel":"4A","longitude":107.533838,"latitude":30.654958,"cityId":"659e1b2e7c854a76938195b1f2793215","cityName":"重庆城区","cityCode":"023","districtId":"da58ee8175f0499090c91de1bd76958b","districtName":"梁平区"},{"id":"af4031f33d764adb92d3084d8bb42f45","name":"小南海旅游景区","description":null,"aLevel":"4A","longitude":108.983926,"latitude":29.397708,"cityId":"659e1b2e7c854a76938195b1f2793215","cityName":"重庆城区","cityCode":"023","districtId":"fac298619850494d8f2679684050493c","districtName":"黔江区"},{"id":"c03958095b15495a9c3b09e6f244324c","name":"重庆巴南羊鹿山景区","description":null,"aLevel":"4A","longitude":106.540603,"latitude":29.402348,"cityId":"659e1b2e7c854a76938195b1f2793215","cityName":"重庆城区","cityCode":"023","districtId":"40a7c82228b94ea2b6fafd89fbbc9f0f","districtName":"巴南区"},{"id":"fe96107304594d1dbbb01392d387dec7","name":"钓鱼城景区","description":null,"aLevel":"4A","longitude":106.311798,"latitude":30.002952,"cityId":"659e1b2e7c854a76938195b1f2793215","cityName":"重庆城区","cityCode":"023","districtId":"4664960307c54c7ab0f8ea969ea88be1","districtName":"合川区"},{"id":"3d05ee3380234e89b67516c0afdee328","name":"周君记火锅食品工业旅游体验园景区","description":null,"aLevel":"4A","longitude":106.512087,"latitude":29.500376,"cityId":"659e1b2e7c854a76938195b1f2793215","cityName":"重庆城区","cityCode":"023","districtId":"e1ef97df5e0540fcbee252206733566c","districtName":"九龙坡区"},{"id":"9f2d0ec0ef264f9f9f6319ef9923881d","name":"重庆抗战遗址博物馆","description":null,"aLevel":"4A","longitude":106.617281,"latitude":29.566716,"cityId":"659e1b2e7c854a76938195b1f2793215","cityName":"重庆城区","cityCode":"023","districtId":"fc3ba6b2d19847e7bb152c94e122e71e","districtName":"南岸区"},{"id":"636546683bc44f47aaf11a181476b9cb","name":"双江古镇景区","description":null,"aLevel":"4A","longitude":105.750005,"latitude":30.21228,"cityId":"659e1b2e7c854a76938195b1f2793215","cityName":"重庆城区","cityCode":"023","districtId":"8e220143d5ad4032b6cf0620f623dfbf","districtName":"潼南区"},{"id":"6d2aec13a8df43a2897e1cd94041b302","name":"重庆长江索道景区","description":null,"aLevel":"4A","longitude":106.586634,"latitude":29.556249,"cityId":"659e1b2e7c854a76938195b1f2793215","cityName":"重庆城区","cityCode":"023","districtId":"ef46c9c2f67347a89c11a47ffee99201","districtName":"渝中区"},{"id":"f4885657382747f7ba1e1e7afac2281e","name":"濯水古镇景区","description":null,"aLevel":"4A","longitude":108.77334,"latitude":29.299424,"cityId":"659e1b2e7c854a76938195b1f2793215","cityName":"重庆城区","cityCode":"023","districtId":"fac298619850494d8f2679684050493c","districtName":"黔江区"},{"id":"2ff43d2058d74f7ab70c1e80e71824f2","name":"重庆园博园","description":null,"aLevel":"4A","longitude":106.552207,"latitude":29.680232,"cityId":"659e1b2e7c854a76938195b1f2793215","cityName":"重庆城区","cityCode":"023","districtId":"935050f596044443bfa86f5eb4f95896","districtName":"渝北区"},{"id":"5351be60e40d473787e81fe39e85e6f2","name":"丰盛古镇景区","description":null,"aLevel":"4A","longitude":106.935671,"latitude":29.522606,"cityId":"659e1b2e7c854a76938195b1f2793215","cityName":"重庆城区","cityCode":"023","districtId":"40a7c82228b94ea2b6fafd89fbbc9f0f","districtName":"巴南区"},{"id":"9e8ad3385a1b435883c62276d7b2a39c","name":"滑石古寨景区","description":null,"aLevel":"4A","longitude":107.728244,"latitude":30.58862,"cityId":"659e1b2e7c854a76938195b1f2793215","cityName":"重庆城区","cityCode":"023","districtId":"da58ee8175f0499090c91de1bd76958b","districtName":"梁平区"},{"id":"9044f4107f1b4bada96424de91490e06","name":"奇彩梦园","description":null,"aLevel":"4A","longitude":106.049469,"latitude":29.796902,"cityId":"659e1b2e7c854a76938195b1f2793215","cityName":"重庆城区","cityCode":"023","districtId":"fa606ec25f6444f49ad5b5c69c107972","districtName":"铜梁区"},{"id":"bd8d5a0bef7e4a21ada238330836fbf7","name":"刘伯承同志纪念馆（故居）","description":null,"aLevel":"4A","longitude":108.413463,"latitude":31.18957,"cityId":"659e1b2e7c854a76938195b1f2793215","cityName":"重庆城区","cityCode":"023","districtId":"2ba9c1a9f609439a8295d9ccf01a27a5","districtName":"开州区"},{"id":"6ceefa7c279748f7a0ff3b4e61819a96","name":"茶山竹海景区","description":null,"aLevel":"4A","longitude":105.904248,"latitude":29.362154,"cityId":"659e1b2e7c854a76938195b1f2793215","cityName":"重庆城区","cityCode":"023","districtId":"e2f11a58a5ef401b96387f4eeab899d5","districtName":"永川区"},{"id":"7b465dceab1c4fe0bf5841bbdbc28110","name":"重庆际华园景区","description":null,"aLevel":"4A","longitude":106.831177,"latitude":29.681628,"cityId":"659e1b2e7c854a76938195b1f2793215","cityName":"重庆城区","cityCode":"023","districtId":"935050f596044443bfa86f5eb4f95896","districtName":"渝北区"},{"id":"846b443a158544b8941f4de660cbfe43","name":"长寿湖旅游景区","description":null,"aLevel":"4A","longitude":107.268982,"latitude":29.911028,"cityId":"659e1b2e7c854a76938195b1f2793215","cityName":"重庆城区","cityCode":"023","districtId":"92c1e75899e949a3bdafc40ca5daac96","districtName":"长寿区"},{"id":"4b5233e174df4ccb9ee259b48fce4fd9","name":"建川博物馆","description":null,"aLevel":"4A","longitude":106.522869,"latitude":29.519905,"cityId":"659e1b2e7c854a76938195b1f2793215","cityName":"重庆城区","cityCode":"023","districtId":"e1ef97df5e0540fcbee252206733566c","districtName":"九龙坡区"},{"id":"3d6ab5b3d09840a2b2395ce22b00d151","name":"重庆歌乐山森林公园","description":null,"aLevel":"4A","longitude":106.425696,"latitude":29.568313,"cityId":"659e1b2e7c854a76938195b1f2793215","cityName":"重庆城区","cityCode":"023","districtId":"143b96efb83a44bba2f2d89b35dba2ac","districtName":"沙坪坝区"},{"id":"26564b34a55b43ab8b185fe4cec9efb8","name":"爱莉丝庄园景区","description":null,"aLevel":"4A","longitude":108.785506,"latitude":29.374629,"cityId":"659e1b2e7c854a76938195b1f2793215","cityName":"重庆城区","cityCode":"023","districtId":"fac298619850494d8f2679684050493c","districtName":"黔江区"},{"id":"81c347ca02064472b404602e2afed50f","name":"规划展览馆","description":null,"aLevel":"4A","longitude":106.588941,"latitude":29.575722,"cityId":"659e1b2e7c854a76938195b1f2793215","cityName":"重庆城区","cityCode":"023","districtId":"fc3ba6b2d19847e7bb152c94e122e71e","districtName":"南岸区"},{"id":"307fe576c46d4cab8379618819e145a9","name":"贝迪颐园温泉旅游度假区","description":null,"aLevel":"4A","longitude":106.364244,"latitude":29.449608,"cityId":"659e1b2e7c854a76938195b1f2793215","cityName":"重庆城区","cityCode":"023","districtId":"e1ef97df5e0540fcbee252206733566c","districtName":"九龙坡区"},{"id":"24f84b43261a478f9a0261b7a25c350d","name":"融汇温泉小镇景区","description":null,"aLevel":"4A","longitude":106.440809,"latitude":29.540782,"cityId":"659e1b2e7c854a76938195b1f2793215","cityName":"重庆城区","cityCode":"023","districtId":"143b96efb83a44bba2f2d89b35dba2ac","districtName":"沙坪坝区"},{"id":"bcff104a65a4480badee6326058265ce","name":"黔江土家十三寨景区","description":null,"aLevel":"4A","longitude":108.673013,"latitude":29.670876,"cityId":"659e1b2e7c854a76938195b1f2793215","cityName":"重庆城区","cityCode":"023","districtId":"fac298619850494d8f2679684050493c","districtName":"黔江区"},{"id":"9858e440c622445da6ca6432e04481d0","name":"重庆缙云山景区","description":null,"aLevel":"4A","longitude":106.384813,"latitude":29.829613,"cityId":"659e1b2e7c854a76938195b1f2793215","cityName":"重庆城区","cityCode":"023","districtId":"f8f9869b5e5a4c79a57dc7d1589f8780","districtName":"北碚区"},{"id":"5c4918e2f0814bd1aaa26aae78cd442d","name":"聂荣臻元帅陈列馆","description":null,"aLevel":"4A","longitude":106.260721,"latitude":29.275077,"cityId":"659e1b2e7c854a76938195b1f2793215","cityName":"重庆城区","cityCode":"023","districtId":"39edd330744343d6816c3d703f0e49bf","districtName":"江津区"},{"id":"1cc50d31196046bc98bf6c4109d165a8","name":"重庆黔江水车坪景区","description":null,"aLevel":"4A","longitude":108.771719,"latitude":29.290962,"cityId":"659e1b2e7c854a76938195b1f2793215","cityName":"重庆城区","cityCode":"023","districtId":"fac298619850494d8f2679684050493c","districtName":"黔江区"},{"id":"0dfa16574d5843fc975f6ce9abeaf127","name":"816地下核工程景区","description":null,"aLevel":"4A","longitude":107.246521,"latitude":29.752475,"cityId":"659e1b2e7c854a76938195b1f2793215","cityName":"重庆城区","cityCode":"023","districtId":"518c757d9153449ba06df0047f70d314","districtName":"涪陵区"},{"id":"011561c92eb04d1f804a7594e61dbd72","name":"荣昌万灵古镇景区","description":null,"aLevel":"4A","longitude":105.653432,"latitude":29.486896,"cityId":"659e1b2e7c854a76938195b1f2793215","cityName":"重庆城区","cityCode":"023","districtId":"468024c792a74c8ba8c7d50c16fb5195","districtName":"荣昌区"},{"id":"c36d189dd9f649768fd07766b95b266b","name":"汉丰湖景区","description":null,"aLevel":"4A","longitude":108.392785,"latitude":31.168362,"cityId":"659e1b2e7c854a76938195b1f2793215","cityName":"重庆城区","cityCode":"023","districtId":"2ba9c1a9f609439a8295d9ccf01a27a5","districtName":"开州区"},{"id":"62045bf1e5934e399f03795a9098d736","name":"重庆自然博物馆","description":null,"aLevel":"4A","longitude":106.407804,"latitude":29.818862,"cityId":"659e1b2e7c854a76938195b1f2793215","cityName":"重庆城区","cityCode":"023","districtId":"f8f9869b5e5a4c79a57dc7d1589f8780","districtName":"北碚区"},{"id":"952e881716534cf18e0b79d61fbb9979","name":"重庆黔江芭拉胡景区","description":null,"aLevel":"4A","longitude":108.817448,"latitude":29.50533,"cityId":"659e1b2e7c854a76938195b1f2793215","cityName":"重庆城区","cityCode":"023","districtId":"fac298619850494d8f2679684050493c","districtName":"黔江区"},{"id":"833cc3ff96f2444a88da7bca0b29d3b3","name":"涞滩二佛寺景区","description":null,"aLevel":"4A","longitude":106.488635,"latitude":30.173313,"cityId":"659e1b2e7c854a76938195b1f2793215","cityName":"重庆城区","cityCode":"023","districtId":"4664960307c54c7ab0f8ea969ea88be1","districtName":"合川区"},{"id":"fdd191c31796434b99c97fabe6f3173d","name":"重庆长寿菩提古镇文化旅游区","description":null,"aLevel":"4A","longitude":107.066308,"latitude":29.857547,"cityId":"659e1b2e7c854a76938195b1f2793215","cityName":"重庆城区","cityCode":"023","districtId":"92c1e75899e949a3bdafc40ca5daac96","districtName":"长寿区"},{"id":"70aa29c0d07b486790ea818f66ec2c50","name":"重庆统景温泉风景区","description":null,"aLevel":"4A","longitude":106.826137,"latitude":29.858093,"cityId":"659e1b2e7c854a76938195b1f2793215","cityName":"重庆城区","cityCode":"023","districtId":"935050f596044443bfa86f5eb4f95896","districtName":"渝北区"},{"id":"2a84f18eb30c480782b683b4dae09c63","name":"重庆神龟峡景区","description":null,"aLevel":"4A","longitude":108.663638,"latitude":29.104924,"cityId":"659e1b2e7c854a76938195b1f2793215","cityName":"重庆城区","cityCode":"023","districtId":"fac298619850494d8f2679684050493c","districtName":"黔江区"},{"id":"cc8316cce8984544bccc8547c48e8b4a","name":"重庆科技馆","description":null,"aLevel":"4A","longitude":106.577789,"latitude":29.570973,"cityId":"659e1b2e7c854a76938195b1f2793215","cityName":"重庆城区","cityCode":"023","districtId":"e6f952afaf364736943de513570f656d","districtName":"江北区"},{"id":"35573c7dd61c4fa1af6486803a98c609","name":"重庆保税体验旅游景区","description":null,"aLevel":"4A","longitude":106.588023,"latitude":29.623933,"cityId":"659e1b2e7c854a76938195b1f2793215","cityName":"重庆城区","cityCode":"023","districtId":"e6f952afaf364736943de513570f656d","districtName":"江北区"},{"id":"14d7d33e10d44e3089ed8884931035f4","name":"两江影视城景区","description":null,"aLevel":"4A","longitude":106.822543,"latitude":29.686321,"cityId":"659e1b2e7c854a76938195b1f2793215","cityName":"重庆城区","cityCode":"023","districtId":"935050f596044443bfa86f5eb4f95896","districtName":"渝北区"},{"id":"db9cf3c138d64764895f8a1cf44fd455","name":"重庆磁器口古镇景区","description":null,"aLevel":"4A","longitude":106.449705,"latitude":29.581184,"cityId":"659e1b2e7c854a76938195b1f2793215","cityName":"重庆城区","cityCode":"023","districtId":"143b96efb83a44bba2f2d89b35dba2ac","districtName":"沙坪坝区"},{"id":"b7c65932659246bdae2e9688c9f332ed","name":"长嘉汇弹子石老街景区","description":null,"aLevel":"4A","longitude":106.588299,"latitude":29.579976,"cityId":"659e1b2e7c854a76938195b1f2793215","cityName":"重庆城区","cityCode":"023","districtId":"fc3ba6b2d19847e7bb152c94e122e71e","districtName":"南岸区"},{"id":"246620a8d8d64f34a6cb97799f083354","name":"铁山坪森林公园景区","description":null,"aLevel":"4A","longitude":106.689273,"latitude":29.614132,"cityId":"659e1b2e7c854a76938195b1f2793215","cityName":"重庆城区","cityCode":"023","districtId":"e6f952afaf364736943de513570f656d","districtName":"江北区"},{"id":"af8ec06ad4c74047a55fa05fe2aff2f5","name":"重庆湖广会馆景区","description":null,"aLevel":"4A","longitude":106.586915,"latitude":29.557921,"cityId":"659e1b2e7c854a76938195b1f2793215","cityName":"重庆城区","cityCode":"023","districtId":"ef46c9c2f67347a89c11a47ffee99201","districtName":"渝中区"},{"id":"f5041d4317f34006a363a0cc6b0cdd5f","name":"乐和乐都景区","description":null,"aLevel":"4A","longitude":105.913876,"latitude":29.291437,"cityId":"659e1b2e7c854a76938195b1f2793215","cityName":"重庆城区","cityCode":"023","districtId":"e2f11a58a5ef401b96387f4eeab899d5","districtName":"永川区"},{"id":"86c3b4986aa2477198b4a0ed07958cff","name":"鎏嘉码头景区","description":null,"aLevel":"4A","longitude":106.560142,"latitude":29.570556,"cityId":"659e1b2e7c854a76938195b1f2793215","cityName":"重庆城区","cityCode":"023","districtId":"e6f952afaf364736943de513570f656d","districtName":"江北区"},{"id":"83a6da4aec5e4302a99fa3868bdae5a6","name":"重庆洪崖洞民俗风貌区","description":null,"aLevel":"4A","longitude":106.579031,"latitude":29.562201,"cityId":"659e1b2e7c854a76938195b1f2793215","cityName":"重庆城区","cityCode":"023","districtId":"ef46c9c2f67347a89c11a47ffee99201","districtName":"渝中区"},{"id":"f447e8e9be884ffa9bf9b1dc2f2833cd","name":"金刀峡景区","description":null,"aLevel":"4A","longitude":106.623016,"latitude":30.022556,"cityId":"659e1b2e7c854a76938195b1f2793215","cityName":"重庆城区","cityCode":"023","districtId":"f8f9869b5e5a4c79a57dc7d1589f8780","districtName":"北碚区"},{"id":"45a0c86e63c6474f99a2b2ec7e308fb7","name":"武陵山森林公园景区","description":null,"aLevel":"4A","longitude":107.623502,"latitude":29.550039,"cityId":"659e1b2e7c854a76938195b1f2793215","cityName":"重庆城区","cityCode":"023","districtId":"518c757d9153449ba06df0047f70d314","districtName":"涪陵区"},{"id":"237badc4d05b4a049629ba55670f6b92","name":"重庆观音桥商圈都市旅游区","description":null,"aLevel":"4A","longitude":106.529259,"latitude":29.574734,"cityId":"659e1b2e7c854a76938195b1f2793215","cityName":"重庆城区","cityCode":"023","districtId":"e6f952afaf364736943de513570f656d","districtName":"江北区"},{"id":"810f44bc569e4a83bb58c02a3ac448c4","name":"重庆天地旅游区","description":null,"aLevel":"4A","longitude":106.509525,"latitude":29.55333,"cityId":"659e1b2e7c854a76938195b1f2793215","cityName":"重庆城区","cityCode":"023","districtId":"ef46c9c2f67347a89c11a47ffee99201","districtName":"渝中区"},{"id":"d708296c7c2a448ab050c57743c43499","name":"南山植物园","description":null,"aLevel":"4A","longitude":106.644254,"latitude":29.50109,"cityId":"659e1b2e7c854a76938195b1f2793215","cityName":"重庆城区","cityCode":"023","districtId":"fc3ba6b2d19847e7bb152c94e122e71e","districtName":"南岸区"},{"id":"69776172732049ed85ffc93c48c15b3b","name":"大佛寺景区","description":null,"aLevel":"4A","longitude":105.810309,"latitude":30.190368,"cityId":"659e1b2e7c854a76938195b1f2793215","cityName":"重庆城区","cityCode":"023","districtId":"8e220143d5ad4032b6cf0620f623dfbf","districtName":"潼南区"},{"id":"f322124fd6d14750b59aca242e9d7a05","name":"重庆歌乐山烈士陵园","description":null,"aLevel":"4A","longitude":106.44234,"latitude":29.572187,"cityId":"659e1b2e7c854a76938195b1f2793215","cityName":"重庆城区","cityCode":"023","districtId":"143b96efb83a44bba2f2d89b35dba2ac","districtName":"沙坪坝区"},{"id":"243aa49ce7cb4265a7a7ca98bc0fc7fb","name":"北温泉景区","description":null,"aLevel":"4A","longitude":106.421929,"latitude":29.831884,"cityId":"659e1b2e7c854a76938195b1f2793215","cityName":"重庆城区","cityCode":"023","districtId":"f8f9869b5e5a4c79a57dc7d1589f8780","districtName":"北碚区"},{"id":"bd019f97911b493a8a88cba9e5c8ba90","name":"重庆上邦温泉旅游区","description":null,"aLevel":"4A","longitude":106.290735,"latitude":29.486988,"cityId":"659e1b2e7c854a76938195b1f2793215","cityName":"重庆城区","cityCode":"023","districtId":"e1ef97df5e0540fcbee252206733566c","districtName":"九龙坡区"},{"id":"91eefc0c95904b658378cc662f60d7e3","name":"安居古城","description":null,"aLevel":"4A","longitude":106.027658,"latitude":29.986202,"cityId":"659e1b2e7c854a76938195b1f2793215","cityName":"重庆城区","cityCode":"023","districtId":"fa606ec25f6444f49ad5b5c69c107972","districtName":"铜梁区"},{"id":"2849dd75112c4e989833d21836e1341e","name":"两江新区重庆欢乐谷景区","description":null,"aLevel":"4A","longitude":106.514322,"latitude":29.666425,"cityId":"659e1b2e7c854a76938195b1f2793215","cityName":"重庆城区","cityCode":"023","districtId":"935050f596044443bfa86f5eb4f95896","districtName":"渝北区"},{"id":"a64d2238921e4baf9b1dd25b0c38e4c5","name":"东温泉风景区","description":null,"aLevel":"4A","longitude":106.866496,"latitude":29.458612,"cityId":"659e1b2e7c854a76938195b1f2793215","cityName":"重庆城区","cityCode":"023","districtId":"40a7c82228b94ea2b6fafd89fbbc9f0f","districtName":"巴南区"},{"id":"36872bcb8bfb4ea685ebd2aebd3d73fa","name":"重庆綦江国家地质公园老瀛山景区","description":null,"aLevel":"4A","longitude":106.762521,"latitude":29.018388,"cityId":"659e1b2e7c854a76938195b1f2793215","cityName":"重庆城区","cityCode":"023","districtId":"ae1eda6c1f6f446c8f387f58ee735339","districtName":"綦江区"},{"id":"3f3de118cc5340bb928dd59d1ddf29cb","name":"白鹤梁水下博物馆","description":null,"aLevel":"4A","longitude":107.392403,"latitude":29.712169,"cityId":"659e1b2e7c854a76938195b1f2793215","cityName":"重庆城区","cityCode":"023","districtId":"518c757d9153449ba06df0047f70d314","districtName":"涪陵区"},{"id":"0614ea65476e4294b5fcd610387742aa","name":"蒲花暗河景区","description":null,"aLevel":"4A","longitude":108.743766,"latitude":29.304825,"cityId":"659e1b2e7c854a76938195b1f2793215","cityName":"重庆城区","cityCode":"023","districtId":"fac298619850494d8f2679684050493c","districtName":"黔江区"},{"id":"34ff98abc0a74d2ebd37dacb5cd9d8a9","name":"重庆动物园风景区","description":null,"aLevel":"4A","longitude":106.505799,"latitude":29.504023,"cityId":"659e1b2e7c854a76938195b1f2793215","cityName":"重庆城区","cityCode":"023","districtId":"e1ef97df5e0540fcbee252206733566c","districtName":"九龙坡区"},{"id":"b1d74706281e4c1c9f78dafadb0e7565","name":"古剑山风景区","description":null,"aLevel":"4A","longitude":106.59065,"latitude":28.940729,"cityId":"659e1b2e7c854a76938195b1f2793215","cityName":"重庆城区","cityCode":"023","districtId":"ae1eda6c1f6f446c8f387f58ee735339","districtName":"綦江区"},{"id":"80ed07f4e5374189a5d2dca46e56028d","name":"重庆特园民主党派历史陈列馆景区","description":null,"aLevel":"4A","longitude":106.54564,"latitude":29.560942,"cityId":"659e1b2e7c854a76938195b1f2793215","cityName":"重庆城区","cityCode":"023","districtId":"ef46c9c2f67347a89c11a47ffee99201","districtName":"渝中区"},{"id":"d6f35916a9c84b4db0c2e5c57a9280a6","name":"大木花谷·林下花园景区","description":null,"aLevel":"4A","longitude":106.550483,"latitude":29.563707,"cityId":"659e1b2e7c854a76938195b1f2793215","cityName":"重庆城区","cityCode":"023","districtId":"518c757d9153449ba06df0047f70d314","districtName":"涪陵区"},{"id":"a33bb46bfa96444eb1d1e8ffdc8fb5a0","name":"重庆红岩革命纪念馆","description":null,"aLevel":"4A","longitude":106.205819,"latitude":29.625995,"cityId":"659e1b2e7c854a76938195b1f2793215","cityName":"重庆城区","cityCode":"023","districtId":"ef46c9c2f67347a89c11a47ffee99201","districtName":"渝中区"},{"id":"babc53813e9b420d8420ee38e007a8ee","name":"观音塘国家城市湿地公园","description":null,"aLevel":"4A","longitude":106.224891,"latitude":29.554511,"cityId":"659e1b2e7c854a76938195b1f2793215","cityName":"重庆城区","cityCode":"023","districtId":"833519c22ac44f0d849a4263e1f08520","districtName":"璧山区"},{"id":"eb45cfce673b40e6aee0ef31a44662a2","name":"中泰天心佛文化旅游区","description":null,"aLevel":"4A","longitude":106.77047,"latitude":29.406996,"cityId":"659e1b2e7c854a76938195b1f2793215","cityName":"重庆城区","cityCode":"023","districtId":"40a7c82228b94ea2b6fafd89fbbc9f0f","districtName":"巴南区"},{"id":"c30a0daffc0d4484a1e9f15a32f21a25","name":"重庆中国三峡博物馆","description":null,"aLevel":"4A","longitude":106.550513,"latitude":29.562014,"cityId":"659e1b2e7c854a76938195b1f2793215","cityName":"重庆城区","cityCode":"023","districtId":"ef46c9c2f67347a89c11a47ffee99201","districtName":"渝中区"},{"id":"97b8db1950db46a1a727f46c9aec9790","name":"重庆海昌加勒比海景区","description":null,"aLevel":"4A","longitude":106.61476,"latitude":29.556777,"cityId":"659e1b2e7c854a76938195b1f2793215","cityName":"重庆城区","cityCode":"023","districtId":"fc3ba6b2d19847e7bb152c94e122e71e","districtName":"南岸区"},{"id":"1ed794c7541e4d97a8a5f8c5fc6daa35","name":"重庆海兰云天温泉度假区","description":null,"aLevel":"4A","longitude":106.281929,"latitude":29.503929,"cityId":"659e1b2e7c854a76938195b1f2793215","cityName":"重庆城区","cityCode":"023","districtId":"e1ef97df5e0540fcbee252206733566c","districtName":"九龙坡区"},{"id":"7205c1f97f6345298229fa552e1da532","name":"人民大礼堂景区","description":null,"aLevel":"4A","longitude":106.553277,"latitude":29.561674,"cityId":"659e1b2e7c854a76938195b1f2793215","cityName":"重庆城区","cityCode":"023","districtId":"ef46c9c2f67347a89c11a47ffee99201","districtName":"渝中区"},{"id":"57f01c9f3206488d819efb182fa99bb5","name":"陈独秀旧居陈列馆","description":null,"aLevel":"4A","longitude":106.247972,"latitude":29.204039,"cityId":"659e1b2e7c854a76938195b1f2793215","cityName":"重庆城区","cityCode":"023","districtId":"39edd330744343d6816c3d703f0e49bf","districtName":"江津区"},{"id":"e3c375f7f27a41f8afa4fb96f2d9276f","name":"菩提山文化旅游景区","description":null,"aLevel":"4A","longitude":107.03806,"latitude":29.858192,"cityId":"659e1b2e7c854a76938195b1f2793215","cityName":"重庆城区","cityCode":"023","districtId":"92c1e75899e949a3bdafc40ca5daac96","districtName":"长寿区"}]