[{"id":"b1812e35815b47d5abc40b01350d0c75","name":"稻河景区","description":null,"aLevel":"4A","longitude":119.915455,"latitude":32.497134,"cityId":"01f9474dd9064a5491e564f416e91aef","cityName":"泰州市","cityCode":"0523","districtId":"ef8ee8c388e547409381547e1fdd7994","districtName":"海陵区"},{"id":"dc30eef60d4643d49fd5107db9f69510","name":"泰州姜堰市古罗塘旅游文化景区","description":null,"aLevel":"4A","longitude":120.150603,"latitude":32.509696,"cityId":"01f9474dd9064a5491e564f416e91aef","cityName":"泰州市","cityCode":"0523","districtId":"9b4f9131e7f741f48522df2a3d28702f","districtName":"姜堰区"},{"id":"101ed3406f45447691bc2f6c839f96cc","name":"秋雪湖生态景区","description":null,"aLevel":"4A","longitude":119.979693,"latitude":32.553949,"cityId":"01f9474dd9064a5491e564f416e91aef","cityName":"泰州市","cityCode":"0523","districtId":"ef8ee8c388e547409381547e1fdd7994","districtName":"海陵区"},{"id":"8d737e3c880f48c3841d46e44e35e737","name":"高港口岸雕花楼景区","description":null,"aLevel":"4A","longitude":119.877756,"latitude":32.303023,"cityId":"01f9474dd9064a5491e564f416e91aef","cityName":"泰州市","cityCode":"0523","districtId":"7d9d42451cf9412a8c772ff7670967b8","districtName":"高港区"},{"id":"6f5cfd7ce6144003bf0a6e6848e8bc24","name":"泰州泰兴市新四军黄桥战役纪念馆","description":null,"aLevel":"4A","longitude":120.23128,"latitude":32.242238,"cityId":"01f9474dd9064a5491e564f416e91aef","cityName":"泰州市","cityCode":"0523","districtId":"7cd3e1bcbb9648c7934b36262e3f5a4d","districtName":"泰兴市"},{"id":"46c8fd97fedb47ef8d4881c27adf8e48","name":"泰州兴化市郑板桥·范仲淹纪念馆","description":null,"aLevel":"4A","longitude":119.84393,"latitude":32.93499,"cityId":"01f9474dd9064a5491e564f416e91aef","cityName":"泰州市","cityCode":"0523","districtId":"7bb4d692c6ab49efb145df3972c23be1","districtName":"兴化市"},{"id":"04813ffa930b43418a47897162577c76","name":"天德湖景区","description":null,"aLevel":"4A","longitude":119.922883,"latitude":32.456692,"cityId":"01f9474dd9064a5491e564f416e91aef","cityName":"泰州市","cityCode":"0523","districtId":null,"districtName":""},{"id":"bca0724e3ef94ff1acc8bd205d662de1","name":"田园牧歌景区","description":null,"aLevel":"4A","longitude":120.026541,"latitude":32.559761,"cityId":"01f9474dd9064a5491e564f416e91aef","cityName":"泰州市","cityCode":"0523","districtId":"ef8ee8c388e547409381547e1fdd7994","districtName":"海陵区"},{"id":"02b6d9f90a5448eb8048c5d0ad826566","name":"凤城河风景区","description":null,"aLevel":"4A","longitude":119.927442,"latitude":32.481681,"cityId":"01f9474dd9064a5491e564f416e91aef","cityName":"泰州市","cityCode":"0523","districtId":"ef8ee8c388e547409381547e1fdd7994","districtName":"海陵区"},{"id":"4297c5a11a23443a9027e18d1c38405b","name":"泰州姜堰市溱潼古镇","description":null,"aLevel":"4A","longitude":120.098846,"latitude":32.650256,"cityId":"01f9474dd9064a5491e564f416e91aef","cityName":"泰州市","cityCode":"0523","districtId":"9b4f9131e7f741f48522df2a3d28702f","districtName":"姜堰区"},{"id":"b611cfbaefaf451096adfb825ef44b48","name":"泰州兴化市李中水上森林景区","description":null,"aLevel":"4A","longitude":119.733688,"latitude":33.028545,"cityId":"01f9474dd9064a5491e564f416e91aef","cityName":"泰州市","cityCode":"0523","districtId":"7bb4d692c6ab49efb145df3972c23be1","districtName":"兴化市"}]