[{"id":"e81fb07196b04bc2bfd21337b8060de4","name":"宁夏固原博物馆","description":null,"aLevel":"4A","longitude":106.276015,"latitude":36.005449,"cityId":"5640216b05dc40afa8763346a2eaeb0d","cityName":"固原市","cityCode":"0954","districtId":"bb1c6bdb778140198d7ddaa748ba2f84","districtName":"原州区"},{"id":"d0cf2b65884b4fd790ea4cdb086e8da9","name":"须弥山旅游区","description":null,"aLevel":"4A","longitude":105.991402,"latitude":36.277605,"cityId":"5640216b05dc40afa8763346a2eaeb0d","cityName":"固原市","cityCode":"0954","districtId":"bb1c6bdb778140198d7ddaa748ba2f84","districtName":"原州区"},{"id":"593ba12db019411788789e7d274b1aa9","name":"火石寨景区","description":null,"aLevel":"4A","longitude":105.764317,"latitude":36.09669,"cityId":"5640216b05dc40afa8763346a2eaeb0d","cityName":"固原市","cityCode":"0954","districtId":"b8bc81139ae5415e9ade044e610b0d12","districtName":"西吉县"},{"id":"82bedec4db3e4f2ea885a8e57f52406d","name":"宁夏六盘山(国家)森林公园景区","description":null,"aLevel":"4A","longitude":106.311345,"latitude":35.488622,"cityId":"5640216b05dc40afa8763346a2eaeb0d","cityName":"固原市","cityCode":"0954","districtId":"7e222953384c4133836992b545cd9b3a","districtName":"泾源县"},{"id":"e2a4ea009cb54af78bbef32f6741d818","name":"农科村景区","description":null,"aLevel":"4A","longitude":106.238166,"latitude":36.144354,"cityId":"5640216b05dc40afa8763346a2eaeb0d","cityName":"固原市","cityCode":"0954","districtId":"bb1c6bdb778140198d7ddaa748ba2f84","districtName":"原州区"}]