[{"id":"2b94c791c7f148a7b84812d0fec26808","name":"西部恐龙水乐园景区","description":null,"aLevel":"4A","longitude":103.629593,"latitude":36.456161,"cityId":"491ab4b40f9949f58af29c0943a24a97","cityName":"兰州市","cityCode":"0931","districtId":"c0e81212ef2f4436815a9accf81c6dcd","districtName":"皋兰县"},{"id":"073831e3ec524eab8f9d29f7f6dd4134","name":"兰州水车博览园景区","description":null,"aLevel":"4A","longitude":103.84353,"latitude":36.063249,"cityId":"491ab4b40f9949f58af29c0943a24a97","cityName":"兰州市","cityCode":"0931","districtId":"4dcd10bccada424daa56efa68b1cb6f6","districtName":"城关区"},{"id":"75f9d62ee02a402dab5d35fd7c745563","name":"万达茂景区","description":null,"aLevel":"4A","longitude":103.677131,"latitude":36.089921,"cityId":"491ab4b40f9949f58af29c0943a24a97","cityName":"兰州市","cityCode":"0931","districtId":"30c39aab62fe4b059691c9f69cf0bf15","districtName":"七里河区"},{"id":"896f4c5cac154aa0b21463bfd007f9a0","name":"七彩长虹景区","description":null,"aLevel":"4A","longitude":103.685189,"latitude":36.47928,"cityId":"491ab4b40f9949f58af29c0943a24a97","cityName":"兰州市","cityCode":"0931","districtId":"c0e81212ef2f4436815a9accf81c6dcd","districtName":"皋兰县"},{"id":"5d7af6dc971342d89b7571ad7dbd1366","name":"什川世界第一古梨园景区","description":null,"aLevel":"4A","longitude":104.003491,"latitude":36.153868,"cityId":"491ab4b40f9949f58af29c0943a24a97","cityName":"兰州市","cityCode":"0931","districtId":"c0e81212ef2f4436815a9accf81c6dcd","districtName":"皋兰县"},{"id":"292f51aaac804b95bb80aff0b31e221f","name":"兰州兴隆山景区","description":null,"aLevel":"4A","longitude":104.057163,"latitude":35.776458,"cityId":"491ab4b40f9949f58af29c0943a24a97","cityName":"兰州市","cityCode":"0931","districtId":"617a8373140544d0ad75126a95a97887","districtName":"榆中县"},{"id":"2985b1fcbe88421586b8d6bae1c581a9","name":"兰州吐鲁沟公园景区","description":null,"aLevel":"4A","longitude":102.834816,"latitude":36.594343,"cityId":"491ab4b40f9949f58af29c0943a24a97","cityName":"兰州市","cityCode":"0931","districtId":"4322982c916e4e6796aebe314619e928","districtName":"永登县"},{"id":"aa18fbd6e3b04e19a49cde72a8f2edd9","name":"仁寿山生态文化旅游景区","description":null,"aLevel":"4A","longitude":103.689764,"latitude":36.131813,"cityId":"491ab4b40f9949f58af29c0943a24a97","cityName":"兰州市","cityCode":"0931","districtId":"cc177775ce184f36bf8f013cc46a11af","districtName":"安宁区"}]