[{"id":"a0e3489f57494c7085e204783d07dafa","name":"竹桥古村景区","description":null,"aLevel":"4A","longitude":116.755935,"latitude":27.9911,"cityId":"e03e96827ce54d928fecc6bcada28b1e","cityName":"抚州市","cityCode":"0794","districtId":"553594c11f0949468aee5447d83273e8","districtName":"金溪县"},{"id":"673082f6c4074e858e8a18ee9c1a805e","name":"御龙湾国际旅游度假区","description":null,"aLevel":"4A","longitude":117.129199,"latitude":27.830634,"cityId":"e03e96827ce54d928fecc6bcada28b1e","cityName":"抚州市","cityCode":"0794","districtId":"227b524a098a488db95b6ed1065c29aa","districtName":"资溪县"},{"id":"c9b86ffefa4845df8f6c19cf4a81c3dc","name":"曹山景区","description":null,"aLevel":"4A","longitude":116.125545,"latitude":27.552722,"cityId":"e03e96827ce54d928fecc6bcada28b1e","cityName":"抚州市","cityCode":"0794","districtId":"0fe3e85c5e33416a9a0f53d93275b2d1","districtName":"宜黄县"},{"id":"4c260de7f99544e4ae8623ddbc2cda53","name":"麻姑山景区","description":null,"aLevel":"4A","longitude":116.573918,"latitude":27.536392,"cityId":"e03e96827ce54d928fecc6bcada28b1e","cityName":"抚州市","cityCode":"0794","districtId":"506654de410d4121a26d9869c41d5f17","districtName":"南城县"},{"id":"71824b522e634c96bbd230d4388f331d","name":"黎川古城景区","description":null,"aLevel":"4A","longitude":116.919995,"latitude":27.285546,"cityId":"e03e96827ce54d928fecc6bcada28b1e","cityName":"抚州市","cityCode":"0794","districtId":"373341952be64bc1b6e50c256b934ee8","districtName":"黎川县"},{"id":"06b1a6651e5b4b8fa6c5477c8c5a7c07","name":"市辖区三翁花园景区","description":null,"aLevel":"4A","longitude":116.352781,"latitude":27.93526,"cityId":"e03e96827ce54d928fecc6bcada28b1e","cityName":"抚州市","cityCode":"0794","districtId":"57962430dfbf46b2b6300667959e1310","districtName":"临川区"},{"id":"f7d03326a98f4d0289285e222e35c2e5","name":"东临新区灵谷峰景区管理中心","description":null,"aLevel":"4A","longitude":116.477832,"latitude":27.958211,"cityId":"e03e96827ce54d928fecc6bcada28b1e","cityName":"抚州市","cityCode":"0794","districtId":"57962430dfbf46b2b6300667959e1310","districtName":"临川区"},{"id":"d44a8a97fe8b4a84ab7064f3f2843066","name":"文昌里文化旅游景区","description":null,"aLevel":"4A","longitude":116.364117,"latitude":28.004838,"cityId":"e03e96827ce54d928fecc6bcada28b1e","cityName":"抚州市","cityCode":"0794","districtId":"57962430dfbf46b2b6300667959e1310","districtName":"临川区"},{"id":"2f7cc93f87074abdac6375d154728216","name":"源野山庄","description":null,"aLevel":"4A","longitude":116.215841,"latitude":27.837318,"cityId":"e03e96827ce54d928fecc6bcada28b1e","cityName":"抚州市","cityCode":"0794","districtId":"ce0b28f9d8984c00b7727b4e9aa3988c","districtName":"崇仁县"},{"id":"c69937604102486caab57e85c576546c","name":"佛岭国际公园景区","description":null,"aLevel":"4A","longitude":116.599575,"latitude":28.216619,"cityId":"e03e96827ce54d928fecc6bcada28b1e","cityName":"抚州市","cityCode":"0794","districtId":"e41bce2eafcd4856946af721ad5c7b52","districtName":"东乡区"},{"id":"02b53bb0248e4b81b2b29824a588aa6b","name":"仙盖山景区","description":null,"aLevel":"4A","longitude":116.332672,"latitude":27.825809,"cityId":"e03e96827ce54d928fecc6bcada28b1e","cityName":"抚州市","cityCode":"0794","districtId":"57962430dfbf46b2b6300667959e1310","districtName":"临川区"},{"id":"81ed15ccf6934cf39a7ba43a18419ae0","name":"南丰桔文化旅游产业集聚区","description":null,"aLevel":"4A","longitude":116.528875,"latitude":27.229323,"cityId":"e03e96827ce54d928fecc6bcada28b1e","cityName":"抚州市","cityCode":"0794","districtId":"c2d679880ad74561bc50bd45b66045a6","districtName":"南丰县"},{"id":"6a1cf6877e274f81be11d059339281e6","name":"流坑景区","description":null,"aLevel":"4A","longitude":115.774087,"latitude":27.264982,"cityId":"e03e96827ce54d928fecc6bcada28b1e","cityName":"抚州市","cityCode":"0794","districtId":"1a6d2098c92c47f697d901122746f93c","districtName":"乐安县"},{"id":"4b746b9da50b457da0f8d30aef0ea82d","name":"金竹飞瀑景区","description":null,"aLevel":"4A","longitude":115.898778,"latitude":27.017531,"cityId":"e03e96827ce54d928fecc6bcada28b1e","cityName":"抚州市","cityCode":"0794","districtId":"1a6d2098c92c47f697d901122746f93c","districtName":"乐安县"},{"id":"d86f01c715b345c3b753e0f52feaa647","name":"梦湖景区","description":null,"aLevel":"4A","longitude":116.339727,"latitude":27.978688,"cityId":"e03e96827ce54d928fecc6bcada28b1e","cityName":"抚州市","cityCode":"0794","districtId":"57962430dfbf46b2b6300667959e1310","districtName":"临川区"},{"id":"d781bd8fdaed481c8562f2764674de51","name":"中国莲花景区","description":null,"aLevel":"4A","longitude":116.314205,"latitude":26.542898,"cityId":"e03e96827ce54d928fecc6bcada28b1e","cityName":"抚州市","cityCode":"0794","districtId":"cbf7dd425a64469193766116d3129733","districtName":"广昌县"}]