[{"id":"fb6a45d1bc194642ae1e4706fa2fa72c","name":"香妃园景区","description":null,"aLevel":"4A","longitude":76.026973,"latitude":39.488614,"cityId":"52ff5f1e8df74ee487e17e4001d4d0ef","cityName":"喀什地区","cityCode":"0998","districtId":"78071caecefb45e797ca6c973ef6d61a","districtName":"喀什市"},{"id":"173635e24a2148d9ace15dc7d9478bbd","name":"刀郎画乡旅游景区","description":null,"aLevel":"4A","longitude":77.658547,"latitude":38.834618,"cityId":"52ff5f1e8df74ee487e17e4001d4d0ef","cityName":"喀什地区","cityCode":"0998","districtId":"a698f623d1364c51a2f75e7cf67b4fd4","districtName":"麦盖提县"},{"id":"91022871cba9493f833c7eb85a24ba91","name":"达瓦昆沙漠旅游风景区","description":null,"aLevel":"4A","longitude":77.027571,"latitude":39.036036,"cityId":"52ff5f1e8df74ee487e17e4001d4d0ef","cityName":"喀什地区","cityCode":"0998","districtId":"0dd0c8a76a9c4266a65cd46999ca7e40","districtName":"岳普湖县"},{"id":"041d82f2f0304dabae6684b185fef6c4","name":"红海旅游景区","description":null,"aLevel":"4A","longitude":78.527831,"latitude":39.815414,"cityId":"52ff5f1e8df74ee487e17e4001d4d0ef","cityName":"喀什地区","cityCode":"0998","districtId":"c617d2cd1c7e48e488abb47579700965","districtName":"巴楚县"},{"id":"42b68153b87d49adafc3998558828695","name":"宗郎灵泉景区","description":null,"aLevel":"4A","longitude":77.413669,"latitude":37.882994,"cityId":"52ff5f1e8df74ee487e17e4001d4d0ef","cityName":"喀什地区","cityCode":"0998","districtId":"ab56a73b2d3d45b199c38190b2a7aa22","districtName":"叶城县"},{"id":"765976105d084bfba036a5e7bcdc4b59","name":"南湖旅游景区","description":null,"aLevel":"4A","longitude":76.175729,"latitude":38.930381,"cityId":"52ff5f1e8df74ee487e17e4001d4d0ef","cityName":"喀什地区","cityCode":"0998","districtId":"3e73b878cc1446c8ad77014e23b01f26","districtName":"英吉沙县"}]