[{"id":"030c5b661280401281eb0b0b68b3029e","name":"曾国藩故居旅游区","description":null,"aLevel":"4A","longitude":112.459884,"latitude":27.409097,"cityId":"445cbf358f9d4937ad4cb633022530c1","cityName":"娄底市","cityCode":"0738","districtId":"231ad0a1dfc14bc895a31f1eb7f6fbce","districtName":"双峰县"},{"id":"dfc7e02ac5284c71bc243ac7fedb771c","name":"南宫山景区","description":null,"aLevel":"4A","longitude":111.398954,"latitude":27.689483,"cityId":"445cbf358f9d4937ad4cb633022530c1","cityName":"娄底市","cityCode":"0738","districtId":"d282353398634615a4c265d7e2d48fc2","districtName":"冷水江市"},{"id":"121e09e10a0540099ff14c34d5044197","name":"紫鹊界梯田景区","description":null,"aLevel":"4A","longitude":110.969278,"latitude":27.692295,"cityId":"445cbf358f9d4937ad4cb633022530c1","cityName":"娄底市","cityCode":"0738","districtId":"d39a59097626461f91091ed3af0ec097","districtName":"新化县"},{"id":"835bc3b7225c49b9b6c2a6a93970c4e7","name":"梅山龙宫景区","description":null,"aLevel":"4A","longitude":111.283576,"latitude":27.947199,"cityId":"445cbf358f9d4937ad4cb633022530c1","cityName":"娄底市","cityCode":"0738","districtId":"d39a59097626461f91091ed3af0ec097","districtName":"新化县"},{"id":"94008c38927246fdb418c95e964f7b2a","name":"湖南宝山工矿旅游景区","description":null,"aLevel":"4A","longitude":111.737731,"latitude":27.888951,"cityId":"445cbf358f9d4937ad4cb633022530c1","cityName":"娄底市","cityCode":"0738","districtId":"82bedb7d61594e598c28e21b4297bd5d","districtName":"涟源市"},{"id":"3f15de2e98a849ffb70bd297ea43fee1","name":"三联峒景区","description":null,"aLevel":"4A","longitude":111.239472,"latitude":27.53816,"cityId":"445cbf358f9d4937ad4cb633022530c1","cityName":"娄底市","cityCode":"0738","districtId":"d39a59097626461f91091ed3af0ec097","districtName":"新化县"},{"id":"dde47314ceda4d12b445e3cd01706ad0","name":"湄江风景区","description":null,"aLevel":"4A","longitude":111.7061,"latitude":27.924168,"cityId":"445cbf358f9d4937ad4cb633022530c1","cityName":"娄底市","cityCode":"0738","districtId":"82bedb7d61594e598c28e21b4297bd5d","districtName":"涟源市"}]