[{"id":"e8c6ff750eac4a958b1e2c19850a6143","name":"闽江源生态旅游区","description":null,"aLevel":"4A","longitude":116.909342,"latitude":26.76045,"cityId":"801fbf23140d450eb90bcc7c6ba3fef4","cityName":"三明市","cityCode":"0598","districtId":"7a13811882c84d08aaec7fea8ccc1e07","districtName":"建宁县"},{"id":"bc7affd5c3534694882f3e168f1312ad","name":"泰宁明清园","description":null,"aLevel":"4A","longitude":117.20913,"latitude":26.912376,"cityId":"801fbf23140d450eb90bcc7c6ba3fef4","cityName":"三明市","cityCode":"0598","districtId":"de76fc6eddff4544b4a70db1e84c81be","districtName":"泰宁县"},{"id":"ba75008ea6064894a03c5bfcbddf4a7d","name":"天芳悦潭生态旅游区","description":null,"aLevel":"4A","longitude":116.937865,"latitude":26.174495,"cityId":"801fbf23140d450eb90bcc7c6ba3fef4","cityName":"三明市","cityCode":"0598","districtId":"14c4109e2e484ce1a5c27b184c3cf15d","districtName":"清流县"},{"id":"49e5e04851f747db98a57936d47d56ab","name":"客家祖地景区","description":null,"aLevel":"4A","longitude":116.485541,"latitude":26.246724,"cityId":"801fbf23140d450eb90bcc7c6ba3fef4","cityName":"三明市","cityCode":"0598","districtId":"7d25f6730053415c8f89f309c88393e4","districtName":"宁化县"},{"id":"0e3fc34ad1d34e37b215913362a726fb","name":"中央苏区反“围剿”纪念园景区","description":null,"aLevel":"4A","longitude":116.837344,"latitude":26.84128,"cityId":"801fbf23140d450eb90bcc7c6ba3fef4","cityName":"三明市","cityCode":"0598","districtId":"7a13811882c84d08aaec7fea8ccc1e07","districtName":"建宁县"},{"id":"38dfb66be7f545f1852f92d8312e16ed","name":"尤溪九阜山生态旅游景区","description":null,"aLevel":"4A","longitude":118.093936,"latitude":26.103317,"cityId":"801fbf23140d450eb90bcc7c6ba3fef4","cityName":"三明市","cityCode":"0598","districtId":"0be555662ef44ab7a7b9273fa1c8c610","districtName":"尤溪县"},{"id":"43971dee2d7d49c3a138a050c4960cb1","name":"格氏栲景区","description":null,"aLevel":"4A","longitude":119.296194,"latitude":26.101082,"cityId":"801fbf23140d450eb90bcc7c6ba3fef4","cityName":"三明市","cityCode":"0598","districtId":"e13d3f0735f84441866af0f50f58dbb6","districtName":"三元区"},{"id":"a68dfa011a5c44b1a1e1a0c1e9544362","name":"尤溪朱子文化园景区","description":null,"aLevel":"4A","longitude":118.18853,"latitude":26.167026,"cityId":"801fbf23140d450eb90bcc7c6ba3fef4","cityName":"三明市","cityCode":"0598","districtId":"0be555662ef44ab7a7b9273fa1c8c610","districtName":"尤溪县"},{"id":"b87a148d22ab4d5aa021b9d8d8b5fcc5","name":"瑞云山风景区服务中心","description":null,"aLevel":"4A","longitude":117.655111,"latitude":26.332322,"cityId":"801fbf23140d450eb90bcc7c6ba3fef4","cityName":"三明市","cityCode":"0598","districtId":"e13d3f0735f84441866af0f50f58dbb6","districtName":"三元区"},{"id":"8ac0a9d44fed4e218a7dd5b6daf3d47f","name":"大仙峰·茶美人景区","description":null,"aLevel":"4A","longitude":117.894833,"latitude":25.604583,"cityId":"801fbf23140d450eb90bcc7c6ba3fef4","cityName":"三明市","cityCode":"0598","districtId":"71084e9769b44221a62408d98ad6fa76","districtName":"大田县"},{"id":"63502c06854f48119b17d8c3774b7cf6","name":"玉华洞景区","description":null,"aLevel":"4A","longitude":117.494608,"latitude":26.699175,"cityId":"801fbf23140d450eb90bcc7c6ba3fef4","cityName":"三明市","cityCode":"0598","districtId":"472a628a6e6e4db9ae106f30830ef0d0","districtName":"将乐县"}]