[{"id":"e9cc76b7570e4eb8836e15a249c51c5f","name":"立鱼峰风景区","description":null,"aLevel":"4A","longitude":109.412972,"latitude":24.300788,"cityId":"92530ce8568344b7b9d0a4abcbc73677","cityName":"柳州市","cityCode":"0772","districtId":"c77d7334468743c3a31d717df43f86e0","districtName":"鱼峰区"},{"id":"926f9e93256b4fa3bcfe29b1345525db","name":"雀儿山公园景区","description":null,"aLevel":"4A","longitude":109.404672,"latitude":24.367762,"cityId":"92530ce8568344b7b9d0a4abcbc73677","cityName":"柳州市","cityCode":"0772","districtId":"0e4126b61e364d7bab79ebd865c392ad","districtName":"柳北区"},{"id":"fa35066c63d24b3cac672dc39be9c3ac","name":"卡乐星球欢乐世界旅游景区","description":null,"aLevel":"4A","longitude":109.549182,"latitude":24.389383,"cityId":"92530ce8568344b7b9d0a4abcbc73677","cityName":"柳州市","cityCode":"0772","districtId":"c77d7334468743c3a31d717df43f86e0","districtName":"鱼峰区"},{"id":"58c64cad605a483894662ff73fcb1542","name":"祥荷乡韵景区","description":null,"aLevel":"4A","longitude":109.690877,"latitude":24.692206,"cityId":"92530ce8568344b7b9d0a4abcbc73677","cityName":"柳州市","cityCode":"0772","districtId":"f8a21442a9ad4e36a772e11f6b14ea4c","districtName":"鹿寨县"},{"id":"5102e53d29e246299b043ad5888584d8","name":"马鹿山奇石博览园景区","description":null,"aLevel":"4A","longitude":109.442614,"latitude":24.347721,"cityId":"92530ce8568344b7b9d0a4abcbc73677","cityName":"柳州市","cityCode":"0772","districtId":"bf791efa53064098bfa29daf838c2965","districtName":"城中区"},{"id":"c1335f43b0524fca9fa0415d1f3be99d","name":"民族体育公园景区","description":null,"aLevel":"4A","longitude":109.254635,"latitude":25.084514,"cityId":"92530ce8568344b7b9d0a4abcbc73677","cityName":"柳州市","cityCode":"0772","districtId":"596a03aa14f2455abcc90492b9c3a16c","districtName":"融水苗族自治县"},{"id":"fb37fdd130f84d9897674e1590be3e5b","name":"柳州动物园景区","description":null,"aLevel":"4A","longitude":109.404832,"latitude":24.262438,"cityId":"92530ce8568344b7b9d0a4abcbc73677","cityName":"柳州市","cityCode":"0772","districtId":"5c3879f717eb4f179fd21d57baf2ae73","districtName":"柳南区"},{"id":"8a5b8f42e8634789a11d4f8e0e9cb353","name":"中渡古镇景区","description":null,"aLevel":"4A","longitude":109.702537,"latitude":24.678794,"cityId":"92530ce8568344b7b9d0a4abcbc73677","cityName":"柳州市","cityCode":"0772","districtId":"f8a21442a9ad4e36a772e11f6b14ea4c","districtName":"鹿寨县"},{"id":"98376e0b5264437fbf3063c95652dabe","name":"香桥岩溶国家地质公园景区","description":null,"aLevel":"4A","longitude":109.79865,"latitude":24.453401,"cityId":"92530ce8568344b7b9d0a4abcbc73677","cityName":"柳州市","cityCode":"0772","districtId":"f8a21442a9ad4e36a772e11f6b14ea4c","districtName":"鹿寨县"},{"id":"497a323917674a2dafe379b87673f514","name":"柳侯公园景区","description":null,"aLevel":"4A","longitude":109.415779,"latitude":24.317742,"cityId":"92530ce8568344b7b9d0a4abcbc73677","cityName":"柳州市","cityCode":"0772","districtId":"bf791efa53064098bfa29daf838c2965","districtName":"城中区"},{"id":"cb7effa0e37245d7b93c939527b35777","name":"老君洞景区","description":null,"aLevel":"4A","longitude":109.245713,"latitude":25.046983,"cityId":"92530ce8568344b7b9d0a4abcbc73677","cityName":"柳州市","cityCode":"0772","districtId":"596a03aa14f2455abcc90492b9c3a16c","districtName":"融水苗族自治县"},{"id":"347ec96778484da5b33d9d53be5e4f38","name":"融水梦呜苗寨","description":null,"aLevel":"4A","longitude":109.241216,"latitude":25.103861,"cityId":"92530ce8568344b7b9d0a4abcbc73677","cityName":"柳州市","cityCode":"0772","districtId":"596a03aa14f2455abcc90492b9c3a16c","districtName":"融水苗族自治县"},{"id":"e414f41f8b4b409d8b67a2d638d67972","name":"仙草堂生态灵芝透明工厂","description":null,"aLevel":"4A","longitude":108.327537,"latitude":22.816659,"cityId":"92530ce8568344b7b9d0a4abcbc73677","cityName":"柳州市","cityCode":"0772","districtId":"9ac01494b1924fa08fa9fe3286356fef","districtName":"融安县"},{"id":"2191fd82b7134874b5dfa46ce1fa11d9","name":"螺蛳粉小镇景区","description":null,"aLevel":"4A","longitude":109.301329,"latitude":24.351488,"cityId":"92530ce8568344b7b9d0a4abcbc73677","cityName":"柳州市","cityCode":"0772","districtId":"5c3879f717eb4f179fd21d57baf2ae73","districtName":"柳南区"},{"id":"87ab3ab0546540278c57a80fd77bf9fa","name":"柳州大龙潭景区","description":null,"aLevel":"4A","longitude":109.411293,"latitude":24.278903,"cityId":"92530ce8568344b7b9d0a4abcbc73677","cityName":"柳州市","cityCode":"0772","districtId":"c77d7334468743c3a31d717df43f86e0","districtName":"鱼峰区"},{"id":"d26091849fda49f9b1e6af213d5f7569","name":"广西柳工机械旅游景区","description":null,"aLevel":"4A","longitude":109.354408,"latitude":24.313442,"cityId":"92530ce8568344b7b9d0a4abcbc73677","cityName":"柳州市","cityCode":"0772","districtId":"5c3879f717eb4f179fd21d57baf2ae73","districtName":"柳南区"},{"id":"7f9f132d596448918773af478aa0fe55","name":"融水双龙沟景区","description":null,"aLevel":"4A","longitude":109.236504,"latitude":25.104418,"cityId":"92530ce8568344b7b9d0a4abcbc73677","cityName":"柳州市","cityCode":"0772","districtId":"596a03aa14f2455abcc90492b9c3a16c","districtName":"融水苗族自治县"},{"id":"0d87044b60614dfb8aeab33a63c6710b","name":"  柳州博物馆景区","description":null,"aLevel":"4A","longitude":109.412631,"latitude":24.318926,"cityId":"92530ce8568344b7b9d0a4abcbc73677","cityName":"柳州市","cityCode":"0772","districtId":"bf791efa53064098bfa29daf838c2965","districtName":"城中区"},{"id":"a199be6d78dc49738fc0b845617b5c59","name":"螺蛳粉产业园区","description":null,"aLevel":"4A","longitude":109.449068,"latitude":24.236029,"cityId":"92530ce8568344b7b9d0a4abcbc73677","cityName":"柳州市","cityCode":"0772","districtId":"c77d7334468743c3a31d717df43f86e0","districtName":"鱼峰区"},{"id":"6cd77a6b3db84dcab9feb8f13e75a0c8","name":"知青城景区","description":null,"aLevel":"4A","longitude":109.174987,"latitude":24.665522,"cityId":"92530ce8568344b7b9d0a4abcbc73677","cityName":"柳州市","cityCode":"0772","districtId":"d4d7c57a1e6546bb97ad4507731b054b","districtName":"柳城县"},{"id":"35ea659acf7342fba42ac2d51ea73d60","name":"柳州工业博物馆景区","description":null,"aLevel":"4A","longitude":109.429391,"latitude":24.320562,"cityId":"92530ce8568344b7b9d0a4abcbc73677","cityName":"柳州市","cityCode":"0772","districtId":"c77d7334468743c3a31d717df43f86e0","districtName":"鱼峰区"},{"id":"0eb57e07ca3d4a83b3ced0408d2476e1","name":"三江仙人山景区","description":null,"aLevel":"4A","longitude":109.519436,"latitude":25.860011,"cityId":"92530ce8568344b7b9d0a4abcbc73677","cityName":"柳州市","cityCode":"0772","districtId":"4041b124ed084573a9add13ce5a16180","districtName":"三江侗族自治县"},{"id":"f40344d4cdfe4a739e2cd7cd323afa66","name":"唐津运河生态旅游度假景区","description":null,"aLevel":"4A","longitude":109.422278,"latitude":25.840741,"cityId":"92530ce8568344b7b9d0a4abcbc73677","cityName":"柳州市","cityCode":"0772","districtId":"4041b124ed084573a9add13ce5a16180","districtName":"三江侗族自治县"},{"id":"de14d4df1bf746cd8d78dd82453c1843","name":"凤凰河生态旅游区","description":null,"aLevel":"4A","longitude":109.297754,"latitude":24.401064,"cityId":"92530ce8568344b7b9d0a4abcbc73677","cityName":"柳州市","cityCode":"0772","districtId":"5c3879f717eb4f179fd21d57baf2ae73","districtName":"柳南区"},{"id":"5d0e1ecc61714c8888aee1a5ceba24b2","name":"百里柳江景区","description":null,"aLevel":"4A","longitude":109.427398,"latitude":24.366964,"cityId":"92530ce8568344b7b9d0a4abcbc73677","cityName":"柳州市","cityCode":"0772","districtId":"bf791efa53064098bfa29daf838c2965","districtName":"城中区"},{"id":"dc63a61390654d13b780e23cf6ccb9a0","name":"丹洲古城景区","description":null,"aLevel":"4A","longitude":109.607675,"latitude":25.783197,"cityId":"92530ce8568344b7b9d0a4abcbc73677","cityName":"柳州市","cityCode":"0772","districtId":"4041b124ed084573a9add13ce5a16180","districtName":"三江侗族自治县"},{"id":"959b362c94994893bb7de65e3861487a","name":"石门仙湖景区","description":null,"aLevel":"4A","longitude":109.426816,"latitude":24.874326,"cityId":"92530ce8568344b7b9d0a4abcbc73677","cityName":"柳州市","cityCode":"0772","districtId":"9ac01494b1924fa08fa9fe3286356fef","districtName":"融安县"},{"id":"9e68f10c7c594ebbad66e83b131e20cd","name":"园博园景区","description":null,"aLevel":"4A","longitude":109.55183,"latitude":24.3783,"cityId":"92530ce8568344b7b9d0a4abcbc73677","cityName":"柳州市","cityCode":"0772","districtId":"c77d7334468743c3a31d717df43f86e0","districtName":"鱼峰区"},{"id":"654d48bb27804862851ce980dd8bb946","name":"柳州文庙景区","description":null,"aLevel":"4A","longitude":109.422541,"latitude":24.308558,"cityId":"92530ce8568344b7b9d0a4abcbc73677","cityName":"柳州市","cityCode":"0772","districtId":"c77d7334468743c3a31d717df43f86e0","districtName":"鱼峰区"},{"id":"73d04b511ac947909832ea5fdcdd36ff","name":"都乐岩风景区","description":null,"aLevel":"4A","longitude":109.412455,"latitude":24.22514,"cityId":"92530ce8568344b7b9d0a4abcbc73677","cityName":"柳州市","cityCode":"0772","districtId":"c77d7334468743c3a31d717df43f86e0","districtName":"鱼峰区"},{"id":"4b40716969524638a4f8f337aef96ada","name":"柳州克里湾水乐园景区","description":null,"aLevel":"4A","longitude":109.540388,"latitude":24.383511,"cityId":"92530ce8568344b7b9d0a4abcbc73677","cityName":"柳州市","cityCode":"0772","districtId":"c77d7334468743c3a31d717df43f86e0","districtName":"鱼峰区"},{"id":"cfafa17e216a42a187d7fb9ef842692a","name":"中国三江大侗寨景区","description":null,"aLevel":"4A","longitude":109.615571,"latitude":25.779571,"cityId":"92530ce8568344b7b9d0a4abcbc73677","cityName":"柳州市","cityCode":"0772","districtId":"4041b124ed084573a9add13ce5a16180","districtName":"三江侗族自治县"}]