[{"id":"5cbd96ae64b84cc0b30b0a63c7f3b09a","name":"连环湖温泉景区","description":null,"aLevel":"4A","longitude":124.10662,"latitude":46.679256,"cityId":"1e4c6ee206b34433b22392d098b135f8","cityName":"大庆市","cityCode":"0459","districtId":"da40abad69c947d09be1aa84930b3a75","districtName":"杜尔伯特蒙古族自治县"},{"id":"6e36a4541ebc4d56a47d0feb9064eb7a","name":"市辖区大庆博物馆景区","description":null,"aLevel":"4A","longitude":125.153169,"latitude":46.584229,"cityId":"1e4c6ee206b34433b22392d098b135f8","cityName":"大庆市","cityCode":"0459","districtId":"f1e2b3017dd1459da60b7ad3b7110448","districtName":"龙凤区"},{"id":"0a5b64831d50421b8ae52616df47d492","name":"市辖区大庆规划展示馆","description":null,"aLevel":"4A","longitude":125.150564,"latitude":46.583776,"cityId":"1e4c6ee206b34433b22392d098b135f8","cityName":"大庆市","cityCode":"0459","districtId":"f1e2b3017dd1459da60b7ad3b7110448","districtName":"龙凤区"},{"id":"92f83b3d5ed044bc9dd73562db2bdecb","name":"铁人王进喜纪念馆景区","description":null,"aLevel":"4A","longitude":124.886805,"latitude":46.609386,"cityId":"1e4c6ee206b34433b22392d098b135f8","cityName":"大庆市","cityCode":"0459","districtId":"2adf2c7de2da413fa79522d702206c33","districtName":"让胡路区"},{"id":"bab76f1ccf9d40caa88444796fa926f2","name":"北国温泉旅游度假区","description":null,"aLevel":"4A","longitude":124.863798,"latitude":47.176353,"cityId":"1e4c6ee206b34433b22392d098b135f8","cityName":"大庆市","cityCode":"0459","districtId":"370a419aab20425086e870e35c5c0d3c","districtName":"林甸县"},{"id":"e27f8752741942d4ac074e4b49b7a956","name":"富裕正洁寺旅游区","description":null,"aLevel":"4A","longitude":124.455629,"latitude":46.690199,"cityId":"1e4c6ee206b34433b22392d098b135f8","cityName":"大庆市","cityCode":"0459","districtId":"da40abad69c947d09be1aa84930b3a75","districtName":"杜尔伯特蒙古族自治县"},{"id":"7387510b32c6403b9c676958324ce4b4","name":"大庆赛车小镇景区","description":null,"aLevel":"4A","longitude":125.108833,"latitude":46.665004,"cityId":"1e4c6ee206b34433b22392d098b135f8","cityName":"大庆市","cityCode":"0459","districtId":"70ec34f4fd2e4cbd803c153c11858d39","districtName":"萨尔图区"},{"id":"f272c6b3de3146329de483e1d41699e0","name":"飞泷四季温泉景区","description":null,"aLevel":"4A","longitude":124.863628,"latitude":47.171677,"cityId":"1e4c6ee206b34433b22392d098b135f8","cityName":"大庆市","cityCode":"0459","districtId":"370a419aab20425086e870e35c5c0d3c","districtName":"林甸县"},{"id":"80940ef6367a4a87bc3a885234048361","name":"大庆石油馆景区","description":null,"aLevel":"4A","longitude":125.087526,"latitude":46.594522,"cityId":"1e4c6ee206b34433b22392d098b135f8","cityName":"大庆市","cityCode":"0459","districtId":"70ec34f4fd2e4cbd803c153c11858d39","districtName":"萨尔图区"},{"id":"aa2875d77294410b927ba4e2913c6e4e","name":"鹤鸣湖湿地温泉风景区","description":null,"aLevel":"4A","longitude":124.539048,"latitude":47.28229,"cityId":"1e4c6ee206b34433b22392d098b135f8","cityName":"大庆市","cityCode":"0459","districtId":"370a419aab20425086e870e35c5c0d3c","districtName":"林甸县"},{"id":"7e9f45831b72418888f3a93b81c4e4ac","name":"景区：林甸北方温泉欢乐谷","description":null,"aLevel":"4A","longitude":124.858282,"latitude":47.174345,"cityId":"1e4c6ee206b34433b22392d098b135f8","cityName":"大庆市","cityCode":"0459","districtId":"370a419aab20425086e870e35c5c0d3c","districtName":"林甸县"},{"id":"dca55caff562499f87dcfd71c7ed495a","name":"阿木塔蒙古风情岛景区","description":null,"aLevel":"4A","longitude":124.043159,"latitude":46.564154,"cityId":"1e4c6ee206b34433b22392d098b135f8","cityName":"大庆市","cityCode":"0459","districtId":"da40abad69c947d09be1aa84930b3a75","districtName":"杜尔伯特蒙古族自治县"}]