[{"id":"1e04c80fe5804122ad320442c5c73b87","name":"大连冰峪省级旅游度假区","description":null,"aLevel":"4A","longitude":122.945154,"latitude":40.008908,"cityId":"bd7a6d28c4ad4678985a08d104c98c8a","cityName":"大连市","cityCode":"0411","districtId":"59d3fe94d5e4453e9eb11bc7f5cccd9a","districtName":"庄河市"},{"id":"e51f02614694402d856d0fd685996692","name":"西郊森林公园景区","description":null,"aLevel":"4A","longitude":121.525469,"latitude":38.952998,"cityId":"bd7a6d28c4ad4678985a08d104c98c8a","cityName":"大连市","cityCode":"0411","districtId":"4cf5cf8a7e1f48869c8ce947f28f2e6e","districtName":"甘井子区"},{"id":"01272becbc474d67816712d1316bbcd0","name":"仙浴湾旅游度假区","description":null,"aLevel":"4A","longitude":121.506551,"latitude":39.716404,"cityId":"bd7a6d28c4ad4678985a08d104c98c8a","cityName":"大连市","cityCode":"0411","districtId":"1ba7f283c3684394913477447199bb7c","districtName":"瓦房店市"},{"id":"059b5be30d5a440ba6ff1d5fc2d077fa","name":"大连英歌石植物园","description":null,"aLevel":"4A","longitude":121.358685,"latitude":38.8959,"cityId":"bd7a6d28c4ad4678985a08d104c98c8a","cityName":"大连市","cityCode":"0411","districtId":"2c770c5f92734cc4986cb160ed6bbb9c","districtName":"旅顺口区"},{"id":"001262cef2084393a3981e319eb05d4a","name":"大连横山北普陀主题文化公园景区","description":null,"aLevel":"4A","longitude":121.416987,"latitude":38.875708,"cityId":"bd7a6d28c4ad4678985a08d104c98c8a","cityName":"大连市","cityCode":"0411","districtId":"2c770c5f92734cc4986cb160ed6bbb9c","districtName":"旅顺口区"},{"id":"9daab6f8cc5c43ae9ec322efe9016aac","name":"东鸡冠山景区","description":null,"aLevel":"4A","longitude":121.289105,"latitude":38.819094,"cityId":"bd7a6d28c4ad4678985a08d104c98c8a","cityName":"大连市","cityCode":"0411","districtId":"2c770c5f92734cc4986cb160ed6bbb9c","districtName":"旅顺口区"},{"id":"2967792c73be44e0965f38dcd714f894","name":"大连武术文化博物馆景区","description":null,"aLevel":"4A","longitude":121.628941,"latitude":38.875035,"cityId":"bd7a6d28c4ad4678985a08d104c98c8a","cityName":"大连市","cityCode":"0411","districtId":"08a979a832044d38b32e9759e90f6737","districtName":"西岗区"},{"id":"cd48f9c3df2d45a498014e0b06a4245b","name":"七彩南山景区","description":null,"aLevel":"4A","longitude":121.25833,"latitude":38.841958,"cityId":"bd7a6d28c4ad4678985a08d104c98c8a","cityName":"大连市","cityCode":"0411","districtId":"2c770c5f92734cc4986cb160ed6bbb9c","districtName":"旅顺口区"},{"id":"cd03b2f9e0c545c884fb5620a478404b","name":"白玉山景区","description":null,"aLevel":"4A","longitude":121.260907,"latitude":38.807961,"cityId":"bd7a6d28c4ad4678985a08d104c98c8a","cityName":"大连市","cityCode":"0411","districtId":"2c770c5f92734cc4986cb160ed6bbb9c","districtName":"旅顺口区"},{"id":"c6c9ef32e86b448fae1574b66c95b1e1","name":"大连棒棰岛宾馆景区","description":null,"aLevel":"4A","longitude":121.706434,"latitude":38.889094,"cityId":"bd7a6d28c4ad4678985a08d104c98c8a","cityName":"大连市","cityCode":"0411","districtId":"43e59bae5a5144c39665fe8fc22fe0d2","districtName":"中山区"},{"id":"1ff56fed8af34131858b7d14a757fb9b","name":"大连现代博物馆","description":null,"aLevel":"4A","longitude":121.564298,"latitude":38.941329,"cityId":"bd7a6d28c4ad4678985a08d104c98c8a","cityName":"大连市","cityCode":"0411","districtId":"039aab04d4514de0825800b3a1987e68","districtName":"沙河口区"},{"id":"89a3c30d988c480389c6832981f3b575","name":"将军石旅游景区","description":null,"aLevel":"4A","longitude":121.680993,"latitude":39.921431,"cityId":"bd7a6d28c4ad4678985a08d104c98c8a","cityName":"大连市","cityCode":"0411","districtId":"1ba7f283c3684394913477447199bb7c","districtName":"瓦房店市"},{"id":"c47c95764ead49549d4c8a184dc9ba95","name":"中央大道旅游文化购物中心景区","description":null,"aLevel":"4A","longitude":121.584886,"latitude":38.915941,"cityId":"bd7a6d28c4ad4678985a08d104c98c8a","cityName":"大连市","cityCode":"0411","districtId":"039aab04d4514de0825800b3a1987e68","districtName":"沙河口区"},{"id":"93099f58e752474eb98ca06a64154234","name":"普兰店市安波旅游景区","description":null,"aLevel":"4A","longitude":122.310074,"latitude":39.827604,"cityId":"bd7a6d28c4ad4678985a08d104c98c8a","cityName":"大连市","cityCode":"0411","districtId":"3be4bf5693c444999180c96ec25c4196","districtName":"普兰店区"},{"id":"1c000231257f4b389947a6afa663ed8c","name":"大连香洲田园城旅游景区","description":null,"aLevel":"4A","longitude":121.542835,"latitude":39.451571,"cityId":"bd7a6d28c4ad4678985a08d104c98c8a","cityName":"大连市","cityCode":"0411","districtId":"1ba7f283c3684394913477447199bb7c","districtName":"瓦房店市"},{"id":"aaa4ec2ffb4e42aa92e6aa5b47e3fd7b","name":"大连自然博物馆","description":null,"aLevel":"4A","longitude":121.561602,"latitude":38.870371,"cityId":"bd7a6d28c4ad4678985a08d104c98c8a","cityName":"大连市","cityCode":"0411","districtId":"039aab04d4514de0825800b3a1987e68","districtName":"沙河口区"},{"id":"c77353f1fabf49c8a4b4b565362c5a82","name":"世外俭汤旅游景区","description":null,"aLevel":"4A","longitude":122.421478,"latitude":39.910378,"cityId":"bd7a6d28c4ad4678985a08d104c98c8a","cityName":"大连市","cityCode":"0411","districtId":"3be4bf5693c444999180c96ec25c4196","districtName":"普兰店区"},{"id":"6f0e1566d26b4b45a90abc694f5a28b5","name":"大连七彩南山景区","description":null,"aLevel":"4A","longitude":121.25833,"latitude":38.841958,"cityId":"bd7a6d28c4ad4678985a08d104c98c8a","cityName":"大连市","cityCode":"0411","districtId":"2c770c5f92734cc4986cb160ed6bbb9c","districtName":"旅顺口区"},{"id":"49ae36628d664f61a80dd5e1adee5449","name":"大连旅顺潜艇博物馆景区","description":null,"aLevel":"4A","longitude":121.272867,"latitude":38.795017,"cityId":"bd7a6d28c4ad4678985a08d104c98c8a","cityName":"大连市","cityCode":"0411","districtId":"2c770c5f92734cc4986cb160ed6bbb9c","districtName":"旅顺口区"},{"id":"6f7e8f33d68247b6b15fdf7c7ac55d8d","name":"大连铭湖度假景区","description":null,"aLevel":"4A","longitude":121.801697,"latitude":39.498402,"cityId":"bd7a6d28c4ad4678985a08d104c98c8a","cityName":"大连市","cityCode":"0411","districtId":"3d41c393c4b54b4f8f84ea80ed5380f5","districtName":"金州区"},{"id":"6e8d2b7df74848409dd3e01b5a1fc9bb","name":"天门山景区","description":null,"aLevel":"4A","longitude":122.965881,"latitude":39.680825,"cityId":"bd7a6d28c4ad4678985a08d104c98c8a","cityName":"大连市","cityCode":"0411","districtId":"59d3fe94d5e4453e9eb11bc7f5cccd9a","districtName":"庄河市"},{"id":"5ba8e83c3d3d4d349676e4049f5bffea","name":"旅顺日俄监狱旧址博物馆","description":null,"aLevel":"4A","longitude":121.265682,"latitude":38.825034,"cityId":"bd7a6d28c4ad4678985a08d104c98c8a","cityName":"大连市","cityCode":"0411","districtId":"2c770c5f92734cc4986cb160ed6bbb9c","districtName":"旅顺口区"},{"id":"ac48c94fc7f84de7a892e5496c90363b","name":"普兰店市 平岛辽参小镇生态旅游景区","description":null,"aLevel":"4A","longitude":122.343655,"latitude":39.337515,"cityId":"bd7a6d28c4ad4678985a08d104c98c8a","cityName":"大连市","cityCode":"0411","districtId":"3be4bf5693c444999180c96ec25c4196","districtName":"普兰店区"},{"id":"2179930b431948f58867e5ad3b3aee2b","name":"大连圣亚海洋世界","description":null,"aLevel":"4A","longitude":121.570641,"latitude":38.87811,"cityId":"bd7a6d28c4ad4678985a08d104c98c8a","cityName":"大连市","cityCode":"0411","districtId":"039aab04d4514de0825800b3a1987e68","districtName":"沙河口区"},{"id":"8ab96a7e589848eb9dafed30fea44cdf","name":"关向应纪念馆景区","description":null,"aLevel":"4A","longitude":121.939733,"latitude":39.283029,"cityId":"bd7a6d28c4ad4678985a08d104c98c8a","cityName":"大连市","cityCode":"0411","districtId":"3d41c393c4b54b4f8f84ea80ed5380f5","districtName":"金州区"},{"id":"f2778123940143deb11bf360783dffea","name":"大连森林动物园","description":null,"aLevel":"4A","longitude":121.621494,"latitude":38.888434,"cityId":"bd7a6d28c4ad4678985a08d104c98c8a","cityName":"大连市","cityCode":"0411","districtId":"08a979a832044d38b32e9759e90f6737","districtName":"西岗区"}]