[{"id":"e7b2ad70dcc1410ba6ec010535935e1a","name":"南天湖景区","description":null,"aLevel":"4A","longitude":107.735777,"latitude":29.868286,"cityId":"cfb04e8f52964342964ef1d4a3b1a15b","cityName":"重庆郊县","cityCode":"023","districtId":"81f3a9a22c2f444dbb1e0124fe4149fa","districtName":"丰都县"},{"id":"55218c56281a4b28b5bf1da2671b3de4","name":"西街民俗文化景区","description":null,"aLevel":"4A","longitude":114.84818,"latitude":34.06613,"cityId":"cfb04e8f52964342964ef1d4a3b1a15b","cityName":"重庆郊县","cityCode":"023","districtId":"08d5f321c9c94dbfbf18a8f4fa08c21c","districtName":"秀山土家族苗族自治县"},{"id":"fa06350b067345cc87031e247336c06c","name":"丰都雪玉洞景区","description":null,"aLevel":"4A","longitude":107.796666,"latitude":29.782731,"cityId":"cfb04e8f52964342964ef1d4a3b1a15b","cityName":"重庆郊县","cityCode":"023","districtId":"81f3a9a22c2f444dbb1e0124fe4149fa","districtName":"丰都县"},{"id":"5694feb5548b4db5a2be1f0ff8de1c72","name":"大风堡旅游景区","description":null,"aLevel":"4A","longitude":108.394,"latitude":30.23738,"cityId":"cfb04e8f52964342964ef1d4a3b1a15b","cityName":"重庆郊县","cityCode":"023","districtId":"67487b9d3aac4c4f9d2210eeb2424f78","districtName":"石柱土家族自治县"},{"id":"766e96a1aead4d0a8d001f2ee7562256","name":"白帝城·瞿塘峡景区","description":null,"aLevel":"4A","longitude":109.580984,"latitude":31.038653,"cityId":"cfb04e8f52964342964ef1d4a3b1a15b","cityName":"重庆郊县","cityCode":"023","districtId":"2f7649491530426197ba4890e779ea1a","districtName":"奉节县"},{"id":"26b9d3cd2b284d458356241fe08625db","name":"千野草场景区","description":null,"aLevel":"4A","longitude":108.188048,"latitude":30.201883,"cityId":"cfb04e8f52964342964ef1d4a3b1a15b","cityName":"重庆郊县","cityCode":"023","districtId":"67487b9d3aac4c4f9d2210eeb2424f78","districtName":"石柱土家族自治县"},{"id":"029b8c2030364c4fa49b28a04efa83d9","name":"三峡梯城景区","description":null,"aLevel":"4A","longitude":108.700941,"latitude":30.934981,"cityId":"cfb04e8f52964342964ef1d4a3b1a15b","cityName":"重庆郊县","cityCode":"023","districtId":"a46eda5cfeb1400782a454fef3b76240","districtName":"云阳县"},{"id":"46d7f0f3ef884841adfb4059c077b8be","name":"重庆龚滩古镇景区","description":null,"aLevel":"4A","longitude":106.550483,"latitude":29.563707,"cityId":"cfb04e8f52964342964ef1d4a3b1a15b","cityName":"重庆郊县","cityCode":"023","districtId":"59a98df9146d418291f6cc8fa17876c5","districtName":"酉阳土家族苗族自治县"},{"id":"252b307d097f46b2b49656f12f33a2dd","name":"天坑地缝景区","description":null,"aLevel":"4A","longitude":109.401056,"latitude":31.018505,"cityId":"cfb04e8f52964342964ef1d4a3b1a15b","cityName":"重庆郊县","cityCode":"023","districtId":"2f7649491530426197ba4890e779ea1a","districtName":"奉节县"},{"id":"9903868a17414bc6870a6cfbb90ddd82","name":"红池坝景区","description":null,"aLevel":"4A","longitude":109.065895,"latitude":31.534249,"cityId":"cfb04e8f52964342964ef1d4a3b1a15b","cityName":"重庆郊县","cityCode":"023","districtId":"3a855a68561143fa9cb869ae80788fa9","districtName":"巫溪县"},{"id":"080d00257d1843c8b83e8880cfc4b41b","name":"摩围山景区","description":null,"aLevel":"4A","longitude":107.979442,"latitude":29.182508,"cityId":"cfb04e8f52964342964ef1d4a3b1a15b","cityName":"重庆郊县","cityCode":"023","districtId":"a71ff5c517144d0bb445e1bc86e36ad8","districtName":"彭水苗族土家族自治县"},{"id":"1aec68d54267494bb40094637c90cd28","name":"名山风景区","description":null,"aLevel":"4A","longitude":107.702157,"latitude":29.874246,"cityId":"cfb04e8f52964342964ef1d4a3b1a15b","cityName":"重庆郊县","cityCode":"023","districtId":"81f3a9a22c2f444dbb1e0124fe4149fa","districtName":"丰都县"},{"id":"8cee8dcfeb07463f9c5f980a8698c284","name":"蚩尤九黎城景区","description":null,"aLevel":"4A","longitude":108.128796,"latitude":29.318261,"cityId":"cfb04e8f52964342964ef1d4a3b1a15b","cityName":"重庆郊县","cityCode":"023","districtId":"a71ff5c517144d0bb445e1bc86e36ad8","districtName":"彭水苗族土家族自治县"},{"id":"491853b399484c4aa4e3aa949f432e29","name":"夔州博物馆景区","description":null,"aLevel":"4A","longitude":109.548594,"latitude":31.041577,"cityId":"cfb04e8f52964342964ef1d4a3b1a15b","cityName":"重庆郊县","cityCode":"023","districtId":"2f7649491530426197ba4890e779ea1a","districtName":"奉节县"},{"id":"4898c4495b5f4174b88eb7753575e8fa","name":"亢谷景区","description":null,"aLevel":"4A","longitude":109.001214,"latitude":31.824307,"cityId":"cfb04e8f52964342964ef1d4a3b1a15b","cityName":"重庆郊县","cityCode":"023","districtId":"8e6707e913154a2b89e332d5bdc4757a","districtName":"城口县"},{"id":"ffe5ba70a63248a78c10befff3ae0aaf","name":"重庆巫山神女景区（神女峰、神女溪）","description":null,"aLevel":"4A","longitude":109.878995,"latitude":31.07478,"cityId":"cfb04e8f52964342964ef1d4a3b1a15b","cityName":"重庆郊县","cityCode":"023","districtId":"da36c10ecfaa40e5b5a6f03dc4e4fcd8","districtName":"巫山县"},{"id":"8b6d41fcb5784382a8a1c8f35f7d967e","name":"重庆巫山文峰景区","description":null,"aLevel":"4A","longitude":109.916254,"latitude":31.065559,"cityId":"cfb04e8f52964342964ef1d4a3b1a15b","cityName":"重庆郊县","cityCode":"023","districtId":"da36c10ecfaa40e5b5a6f03dc4e4fcd8","districtName":"巫山县"},{"id":"658535d29dbf458eb905d37d4412db0b","name":"龙桥河景区","description":null,"aLevel":"4A","longitude":109.378863,"latitude":30.530367,"cityId":"cfb04e8f52964342964ef1d4a3b1a15b","cityName":"重庆郊县","cityCode":"023","districtId":"2f7649491530426197ba4890e779ea1a","districtName":"奉节县"},{"id":"64e003c9536943f891aada7775174859","name":"张飞庙景区","description":null,"aLevel":"4A","longitude":108.707228,"latitude":30.910026,"cityId":"cfb04e8f52964342964ef1d4a3b1a15b","cityName":"重庆郊县","cityCode":"023","districtId":"a46eda5cfeb1400782a454fef3b76240","districtName":"云阳县"},{"id":"18960f249b544418b301e20675c2788f","name":"酉阳龙潭古镇景区","description":null,"aLevel":"4A","longitude":108.974571,"latitude":28.761063,"cityId":"cfb04e8f52964342964ef1d4a3b1a15b","cityName":"重庆郊县","cityCode":"023","districtId":"59a98df9146d418291f6cc8fa17876c5","districtName":"酉阳土家族苗族自治县"},{"id":"a0fd73d7600748718806ea673dc4cb53","name":"乌江画廊景区","description":null,"aLevel":"4A","longitude":108.21359,"latitude":29.191122,"cityId":"cfb04e8f52964342964ef1d4a3b1a15b","cityName":"重庆郊县","cityCode":"023","districtId":"a71ff5c517144d0bb445e1bc86e36ad8","districtName":"彭水苗族土家族自治县"},{"id":"9b358f6ea87649a7a7b5ee674e732458","name":"万寿山景区","description":null,"aLevel":"4A","longitude":108.234214,"latitude":30.003298,"cityId":"cfb04e8f52964342964ef1d4a3b1a15b","cityName":"重庆郊县","cityCode":"023","districtId":"67487b9d3aac4c4f9d2210eeb2424f78","districtName":"石柱土家族自治县"},{"id":"28a96f202ab448a99e96f0819796be08","name":"巫山博物馆","description":null,"aLevel":"4A","longitude":109.882804,"latitude":31.073032,"cityId":"cfb04e8f52964342964ef1d4a3b1a15b","cityName":"重庆郊县","cityCode":"023","districtId":"da36c10ecfaa40e5b5a6f03dc4e4fcd8","districtName":"巫山县"},{"id":"c9987dd64e6647fcbf53f254d1153a3d","name":"凤凰山花灯民俗旅游区","description":null,"aLevel":"4A","longitude":109.007096,"latitude":28.448248,"cityId":"cfb04e8f52964342964ef1d4a3b1a15b","cityName":"重庆郊县","cityCode":"023","districtId":"08d5f321c9c94dbfbf18a8f4fa08c21c","districtName":"秀山土家族苗族自治县"}]