[{"id":"b6d43af2c3684e54832705c16f0ab1a3","name":"大悲禅院","description":null,"aLevel":"4A","longitude":117.188533,"latitude":39.154756,"cityId":"d5063ad8b9a541cab8fb1d0cb5d1ee89","cityName":"天津城区","cityCode":"022","districtId":"8faca553b99c46539f132ad312f039be","districtName":"河北区"},{"id":"19db5b7ef03a4059958f0b893b74c76f","name":"天山海世界米立方水上乐园","description":null,"aLevel":"4A","longitude":117.436776,"latitude":38.92752,"cityId":"d5063ad8b9a541cab8fb1d0cb5d1ee89","cityName":"天津城区","cityCode":"022","districtId":"41ec1de25b9f4b8d963bc158829b6f4d","districtName":"津南区"},{"id":"10504cd15edc436ca7261088b8191ff4","name":"塘沽大沽口炮台遗址博物馆","description":null,"aLevel":"4A","longitude":117.710509,"latitude":38.979482,"cityId":"d5063ad8b9a541cab8fb1d0cb5d1ee89","cityName":"天津城区","cityCode":"022","districtId":"901b96621ff24ddca9bb1c875e6a129e","districtName":"滨海新区"},{"id":"f97ec4b524954c5d9f091b3e0560ab92","name":"天津天塔湖风景区","description":null,"aLevel":"4A","longitude":117.181701,"latitude":39.092947,"cityId":"d5063ad8b9a541cab8fb1d0cb5d1ee89","cityName":"天津城区","cityCode":"022","districtId":"3255deb05cf84565856bb05186d56d41","districtName":"河西区"},{"id":"82431888c95246f4aa961c3e0af7c0dc","name":"水高庄园","description":null,"aLevel":"4A","longitude":116.932982,"latitude":39.089432,"cityId":"d5063ad8b9a541cab8fb1d0cb5d1ee89","cityName":"天津城区","cityCode":"022","districtId":"fb6ab2d23cdd4497abc1802245945f1a","districtName":"西青区"},{"id":"1e34d74b53f140128f81201a639f5ac5","name":"天津泰达航母主题公园景区","description":null,"aLevel":"4A","longitude":117.809251,"latitude":39.157909,"cityId":"d5063ad8b9a541cab8fb1d0cb5d1ee89","cityName":"天津城区","cityCode":"022","districtId":"901b96621ff24ddca9bb1c875e6a129e","districtName":"滨海新区"},{"id":"d85ddd04394f4c708361274d30902736","name":"天津热带植物观光园景区","description":null,"aLevel":"4A","longitude":117.094822,"latitude":39.137656,"cityId":"d5063ad8b9a541cab8fb1d0cb5d1ee89","cityName":"天津城区","cityCode":"022","districtId":"fb6ab2d23cdd4497abc1802245945f1a","districtName":"西青区"},{"id":"e0d0c8e18f3543fab23d2c9c8fe108cb","name":"金街文化旅游区景区","description":null,"aLevel":"4A","longitude":117.180844,"latitude":39.115657,"cityId":"d5063ad8b9a541cab8fb1d0cb5d1ee89","cityName":"天津城区","cityCode":"022","districtId":"0c1503b1ae514cf6b96b8bd4942653df","districtName":"和平区"},{"id":"98242de6195649ff803b3f6dea8a4672","name":"天津周恩来邓颖超纪念馆景区","description":null,"aLevel":"4A","longitude":117.165037,"latitude":39.094145,"cityId":"d5063ad8b9a541cab8fb1d0cb5d1ee89","cityName":"天津城区","cityCode":"022","districtId":"e387087f315046fc9f549b8d73219f56","districtName":"南开区"},{"id":"1422c48e674447f8bdc1406e72184453","name":"天津之眼摩天轮景区","description":null,"aLevel":"4A","longitude":117.18764,"latitude":39.154633,"cityId":"d5063ad8b9a541cab8fb1d0cb5d1ee89","cityName":"天津城区","cityCode":"022","districtId":"8faca553b99c46539f132ad312f039be","districtName":"河北区"},{"id":"444e30a312c64046949f4c1f2ebe0cc2","name":"五大道文化旅游区","description":null,"aLevel":"4A","longitude":117.203448,"latitude":39.110502,"cityId":"d5063ad8b9a541cab8fb1d0cb5d1ee89","cityName":"天津城区","cityCode":"022","districtId":"0c1503b1ae514cf6b96b8bd4942653df","districtName":"和平区"},{"id":"9842edb2eaa34a8d9d6a4c2e1618513a","name":"天津水上公园","description":null,"aLevel":"4A","longitude":117.167284,"latitude":39.088954,"cityId":"d5063ad8b9a541cab8fb1d0cb5d1ee89","cityName":"天津城区","cityCode":"022","districtId":"e387087f315046fc9f549b8d73219f56","districtName":"南开区"},{"id":"b45eb5f516224df0862c51f7421366bc","name":"北宁公园","description":null,"aLevel":"4A","longitude":117.223159,"latitude":39.166274,"cityId":"d5063ad8b9a541cab8fb1d0cb5d1ee89","cityName":"天津城区","cityCode":"022","districtId":"8faca553b99c46539f132ad312f039be","districtName":"河北区"},{"id":"5b6a78b2333344808eca5629e3223a7e","name":"杨柳青庄园景区","description":null,"aLevel":"4A","longitude":116.973951,"latitude":39.155306,"cityId":"d5063ad8b9a541cab8fb1d0cb5d1ee89","cityName":"天津城区","cityCode":"022","districtId":"fb6ab2d23cdd4497abc1802245945f1a","districtName":"西青区"},{"id":"15dfa1dfcbfc467799895c0a6ca0d866","name":"南湖绿博园景区","description":null,"aLevel":"4A","longitude":117.123473,"latitude":39.33662,"cityId":"d5063ad8b9a541cab8fb1d0cb5d1ee89","cityName":"天津城区","cityCode":"022","districtId":"7693c9b0ef364deba9cfe420b37b0020","districtName":"武清区"},{"id":"604723e20c8f42eaa22b7ba477fb77f1","name":"天津方特欢乐世界景区","description":null,"aLevel":"4A","longitude":117.739368,"latitude":39.15417,"cityId":"d5063ad8b9a541cab8fb1d0cb5d1ee89","cityName":"天津城区","cityCode":"022","districtId":"901b96621ff24ddca9bb1c875e6a129e","districtName":"滨海新区"},{"id":"6a4b130b5a5a4d31b239867626d6a3e8","name":"萨马兰奇纪念馆","description":null,"aLevel":"4A","longitude":117.084,"latitude":38.968049,"cityId":"d5063ad8b9a541cab8fb1d0cb5d1ee89","cityName":"天津城区","cityCode":"022","districtId":"bc425265859944fbb26e3630354f58a0","districtName":"静海区"},{"id":"9eecff9f85904f6a9d538b3ac493c0a3","name":"天津欢乐谷景区","description":null,"aLevel":"4A","longitude":117.475436,"latitude":39.187359,"cityId":"d5063ad8b9a541cab8fb1d0cb5d1ee89","cityName":"天津城区","cityCode":"022","districtId":"34c9e946555d45028e422329b627da55","districtName":"东丽区"},{"id":"45e7167fdf56481389169a8b544684af","name":"平津战役纪念馆","description":null,"aLevel":"4A","longitude":117.146938,"latitude":39.168988,"cityId":"d5063ad8b9a541cab8fb1d0cb5d1ee89","cityName":"天津城区","cityCode":"022","districtId":"a70743484e7347c9bb2a18602e27f7a4","districtName":"红桥区"},{"id":"834d41eff79d4db2a108a8906500faf4","name":"团泊新城仁爱团泊湖国际休闲博览园景区","description":null,"aLevel":"4A","longitude":117.150699,"latitude":38.892643,"cityId":"d5063ad8b9a541cab8fb1d0cb5d1ee89","cityName":"天津城区","cityCode":"022","districtId":"bc425265859944fbb26e3630354f58a0","districtName":"静海区"},{"id":"5206fa8a2554452a8b22b8964a6e59ec","name":"天津海昌极地海洋公园","description":null,"aLevel":"4A","longitude":117.66036,"latitude":39.007794,"cityId":"d5063ad8b9a541cab8fb1d0cb5d1ee89","cityName":"天津城区","cityCode":"022","districtId":"901b96621ff24ddca9bb1c875e6a129e","districtName":"滨海新区"},{"id":"26ac74fa9b514e63b84ec0f14cff0347","name":"梨木台景区","description":null,"aLevel":"4A","longitude":117.540655,"latitude":40.219868,"cityId":"d5063ad8b9a541cab8fb1d0cb5d1ee89","cityName":"天津城区","cityCode":"022","districtId":"b27932733cdb4c23847eab6d08bef6fd","districtName":"蓟州区"},{"id":"c23dc4bca02a4bca82b3c54eed1637e6","name":"天津东疆湾景区","description":null,"aLevel":"4A","longitude":117.826695,"latitude":39.006055,"cityId":"d5063ad8b9a541cab8fb1d0cb5d1ee89","cityName":"天津城区","cityCode":"022","districtId":"901b96621ff24ddca9bb1c875e6a129e","districtName":"滨海新区"},{"id":"a807543fcf374325a115c69c39e7beab","name":"天津海河意式风情区","description":null,"aLevel":"4A","longitude":117.19813,"latitude":39.135588,"cityId":"d5063ad8b9a541cab8fb1d0cb5d1ee89","cityName":"天津城区","cityCode":"022","districtId":"8faca553b99c46539f132ad312f039be","districtName":"河北区"},{"id":"c30ea69962c242769f07c7a4b17e2026","name":"光合谷旅游度假区","description":null,"aLevel":"4A","longitude":117.172158,"latitude":38.888534,"cityId":"d5063ad8b9a541cab8fb1d0cb5d1ee89","cityName":"天津城区","cityCode":"022","districtId":"bc425265859944fbb26e3630354f58a0","districtName":"静海区"},{"id":"7db4c7b973e9494aa6d7d0575a25494e","name":"黄崖关长城风景区","description":null,"aLevel":"4A","longitude":117.449095,"latitude":40.247997,"cityId":"d5063ad8b9a541cab8fb1d0cb5d1ee89","cityName":"天津城区","cityCode":"022","districtId":"b27932733cdb4c23847eab6d08bef6fd","districtName":"蓟州区"},{"id":"a63902411daf4f5ebd9fdb1225fc61c1","name":"天士力大健康城景区","description":null,"aLevel":"4A","longitude":117.197406,"latitude":39.216755,"cityId":"d5063ad8b9a541cab8fb1d0cb5d1ee89","cityName":"天津城区","cityCode":"022","districtId":"389dccea3a2c4051a22b13b7d3a650c9","districtName":"北辰区"},{"id":"7e87bfcbe9a74ca8be44defddc40403a","name":"精武门·中华武林园景区","description":null,"aLevel":"4A","longitude":117.132901,"latitude":39.028514,"cityId":"d5063ad8b9a541cab8fb1d0cb5d1ee89","cityName":"天津城区","cityCode":"022","districtId":"fb6ab2d23cdd4497abc1802245945f1a","districtName":"西青区"},{"id":"5f8a05f23a49430d927aee925af234a3","name":"独乐寺景区","description":null,"aLevel":"4A","longitude":117.403151,"latitude":40.045646,"cityId":"d5063ad8b9a541cab8fb1d0cb5d1ee89","cityName":"天津城区","cityCode":"022","districtId":"b27932733cdb4c23847eab6d08bef6fd","districtName":"蓟州区"}]