[{"id":"2e52c980619c4f2ca60200704651ff75","name":"中国漕运博物馆景区","description":null,"aLevel":"4A","longitude":119.144976,"latitude":33.507171,"cityId":"9ae0b642188f4f988adc0e0f16fb8cf8","cityName":"淮安市","cityCode":"0517","districtId":"0ecc6665a52e44ab8db6c68ac94fe9f5","districtName":"淮安区"},{"id":"ac340b4d73874cb1a4e83ced4ffa406c","name":"淮安盱眙县铁山寺国家森林公园","description":null,"aLevel":"4A","longitude":118.479908,"latitude":32.738004,"cityId":"9ae0b642188f4f988adc0e0f16fb8cf8","cityName":"淮安市","cityCode":"0517","districtId":"3774d3b7acd940e28c5fed9225e0eef2","districtName":"盱眙县"},{"id":"f3d5c6b220d145c9ad33463ed3161b22","name":"里运河文化长廊景区","description":null,"aLevel":"4A","longitude":119.03815,"latitude":33.59321,"cityId":"9ae0b642188f4f988adc0e0f16fb8cf8","cityName":"淮安市","cityCode":"0517","districtId":"ec5b8775abe04ab9810b8965e0d88006","districtName":"清江浦区"},{"id":"e8e35412aea44b3dba9c47e091284ce5","name":"淮安府署景区","description":null,"aLevel":"4A","longitude":119.146096,"latitude":33.508727,"cityId":"9ae0b642188f4f988adc0e0f16fb8cf8","cityName":"淮安市","cityCode":"0517","districtId":"0ecc6665a52e44ab8db6c68ac94fe9f5","districtName":"淮安区"},{"id":"044d59f476dd45fa920d4f31b8143b53","name":"博物馆","description":null,"aLevel":"4A","longitude":119.012676,"latitude":33.611186,"cityId":"9ae0b642188f4f988adc0e0f16fb8cf8","cityName":"淮安市","cityCode":"0517","districtId":"ec5b8775abe04ab9810b8965e0d88006","districtName":"清江浦区"},{"id":"8ceb0a52117d4b44b1a962d41e7ef4d0","name":"刘老庄连纪念园景区","description":null,"aLevel":"4A","longitude":118.974499,"latitude":33.808566,"cityId":"9ae0b642188f4f988adc0e0f16fb8cf8","cityName":"淮安市","cityCode":"0517","districtId":"28ef7bc77cb7458ba4f66483743cd03d","districtName":"淮阴区"},{"id":"b71d9d2ddb284e94a28e71c1dd6b547b","name":"淮安盱眙县黄花塘新四军军部纪念馆","description":null,"aLevel":"4A","longitude":118.749946,"latitude":32.885835,"cityId":"9ae0b642188f4f988adc0e0f16fb8cf8","cityName":"淮安市","cityCode":"0517","districtId":"3774d3b7acd940e28c5fed9225e0eef2","districtName":"盱眙县"},{"id":"8c99798bbdbf412191b3781488c3a1b7","name":"涟水县五岛湖旅游区","description":null,"aLevel":"4A","longitude":119.258318,"latitude":33.764553,"cityId":"9ae0b642188f4f988adc0e0f16fb8cf8","cityName":"淮安市","cityCode":"0517","districtId":"2dd38f68d4c74b41a4c3b233866c3114","districtName":"涟水县"},{"id":"2ed8b7bd515f412e86fe7dd866f1f633","name":"西游l乐园","description":null,"aLevel":"4A","longitude":119.113166,"latitude":33.551495,"cityId":"9ae0b642188f4f988adc0e0f16fb8cf8","cityName":"淮安市","cityCode":"0517","districtId":null,"districtName":""},{"id":"3332dea1230c4807ab34803ee6a856eb","name":"金湖荷花荡景区","description":null,"aLevel":"4A","longitude":119.228299,"latitude":32.863976,"cityId":"9ae0b642188f4f988adc0e0f16fb8cf8","cityName":"淮安市","cityCode":"0517","districtId":"1b95f5f12a364d16b44d6f32f8c0e3f8","districtName":"金湖县"},{"id":"e911c60c9e3e44618f4885d9737c65e1","name":"明祖陵景区","description":null,"aLevel":"4A","longitude":118.475722,"latitude":33.081398,"cityId":"9ae0b642188f4f988adc0e0f16fb8cf8","cityName":"淮安市","cityCode":"0517","districtId":"3774d3b7acd940e28c5fed9225e0eef2","districtName":"盱眙县"},{"id":"a94c633f0dfc47ba83be8a5a89187f0c","name":"洪泽湖古堰景区","description":null,"aLevel":"4A","longitude":118.839404,"latitude":33.280611,"cityId":"9ae0b642188f4f988adc0e0f16fb8cf8","cityName":"淮安市","cityCode":"0517","districtId":"e7a89e9d40b64901adb287b95f658df5","districtName":"洪泽区"},{"id":"923cc6ef527d40ff83c78d05e4710daa","name":"金湖水上森林","description":null,"aLevel":"4A","longitude":119.270725,"latitude":33.061506,"cityId":"9ae0b642188f4f988adc0e0f16fb8cf8","cityName":"淮安市","cityCode":"0517","districtId":"1b95f5f12a364d16b44d6f32f8c0e3f8","districtName":"金湖县"},{"id":"8ca65fb6f58e4ee89c4d933de9d883b0","name":"淮安盱眙县第一山景区","description":null,"aLevel":"4A","longitude":118.498761,"latitude":33.016356,"cityId":"9ae0b642188f4f988adc0e0f16fb8cf8","cityName":"淮安市","cityCode":"0517","districtId":"3774d3b7acd940e28c5fed9225e0eef2","districtName":"盱眙县"},{"id":"559ae762d0cd424ab180965d4350a655","name":"尧想国文化旅游区","description":null,"aLevel":"4A","longitude":119.162894,"latitude":32.943083,"cityId":"9ae0b642188f4f988adc0e0f16fb8cf8","cityName":"淮安市","cityCode":"0517","districtId":"1b95f5f12a364d16b44d6f32f8c0e3f8","districtName":"金湖县"},{"id":"6bea51a3f31143068af9b620089b76c7","name":"清晏园","description":null,"aLevel":"4A","longitude":119.024368,"latitude":33.585073,"cityId":"9ae0b642188f4f988adc0e0f16fb8cf8","cityName":"淮安市","cityCode":"0517","districtId":"ec5b8775abe04ab9810b8965e0d88006","districtName":"清江浦区"},{"id":"dbe224d774d844558d8ad0220517a42d","name":"白马湖生态旅游景区","description":null,"aLevel":"4A","longitude":119.047445,"latitude":33.317836,"cityId":"9ae0b642188f4f988adc0e0f16fb8cf8","cityName":"淮安市","cityCode":"0517","districtId":"e7a89e9d40b64901adb287b95f658df5","districtName":"洪泽区"},{"id":"df16ec6437a04a788a8edc446e4bdf6b","name":"吴承恩故居景区","description":null,"aLevel":"4A","longitude":119.138833,"latitude":33.527925,"cityId":"9ae0b642188f4f988adc0e0f16fb8cf8","cityName":"淮安市","cityCode":"0517","districtId":"0ecc6665a52e44ab8db6c68ac94fe9f5","districtName":"淮安区"},{"id":"195395883f134f76acefdede62db6947","name":"古淮河文化生态景区","description":null,"aLevel":"4A","longitude":119.090508,"latitude":33.610935,"cityId":"9ae0b642188f4f988adc0e0f16fb8cf8","cityName":"淮安市","cityCode":"0517","districtId":"ec5b8775abe04ab9810b8965e0d88006","districtName":"清江浦区"},{"id":"2218cb70068d49bf910afc5c767a6af9","name":"白马湖向日葵的故事景区","description":null,"aLevel":"4A","longitude":119.075312,"latitude":33.215206,"cityId":"9ae0b642188f4f988adc0e0f16fb8cf8","cityName":"淮安市","cityCode":"0517","districtId":"e7a89e9d40b64901adb287b95f658df5","districtName":"洪泽区"},{"id":"c975b6f13aea442aaa1ffed6fd7971ab","name":"今世缘旅游景区","description":null,"aLevel":"4A","longitude":119.194854,"latitude":34.011199,"cityId":"9ae0b642188f4f988adc0e0f16fb8cf8","cityName":"淮安市","cityCode":"0517","districtId":"2dd38f68d4c74b41a4c3b233866c3114","districtName":"涟水县"}]