[{"id":"157622435d1349b59fff1d56ec3519bc","name":"科技馆旅游景区","description":null,"aLevel":"4A","longitude":104.766136,"latitude":31.473788,"cityId":"08cb9ddba5324cfdb6e010fc224eb68c","cityName":"绵阳市","cityCode":"0816","districtId":"047d4176d69a49ad9442e30914dd17f0","districtName":"游仙区"},{"id":"b730253c222d48feb82e1d61482828f1","name":"佛爷洞景区","description":null,"aLevel":"4A","longitude":104.699651,"latitude":31.833981,"cityId":"08cb9ddba5324cfdb6e010fc224eb68c","cityName":"绵阳市","cityCode":"0816","districtId":"29d652e5ec4b4415b372be5d4c110e30","districtName":"江油市"},{"id":"76c07b0da4844c949d0d20dccabb28a7","name":"越王楼·三江半岛景区","description":null,"aLevel":"4A","longitude":104.755999,"latitude":31.469694,"cityId":"08cb9ddba5324cfdb6e010fc224eb68c","cityName":"绵阳市","cityCode":"0816","districtId":"047d4176d69a49ad9442e30914dd17f0","districtName":"游仙区"},{"id":"84365fbc8cae4ab7877632e7307f946f","name":"药王谷旅游景区","description":null,"aLevel":"4A","longitude":104.680239,"latitude":31.890033,"cityId":"08cb9ddba5324cfdb6e010fc224eb68c","cityName":"绵阳市","cityCode":"0816","districtId":"8314652d59554ad59d68a7a2ed20b33c","districtName":"北川羌族自治县"},{"id":"c00e08c165bb42b3b6cb35d0c6c609b7","name":"李白故居景区","description":null,"aLevel":"4A","longitude":104.74564,"latitude":31.778572,"cityId":"08cb9ddba5324cfdb6e010fc224eb68c","cityName":"绵阳市","cityCode":"0816","districtId":"29d652e5ec4b4415b372be5d4c110e30","districtName":"江油市"},{"id":"8678a98482924a8e975f38e3de32f52e","name":"北川九皇山景区","description":null,"aLevel":"4A","longitude":104.678793,"latitude":31.931061,"cityId":"08cb9ddba5324cfdb6e010fc224eb68c","cityName":"绵阳市","cityCode":"0816","districtId":"8314652d59554ad59d68a7a2ed20b33c","districtName":"北川羌族自治县"},{"id":"4d90031b588d4bf6bba75e3f841e8dee","name":"窦圌山风景区","description":null,"aLevel":"4A","longitude":104.82812,"latitude":31.875424,"cityId":"08cb9ddba5324cfdb6e010fc224eb68c","cityName":"绵阳市","cityCode":"0816","districtId":"29d652e5ec4b4415b372be5d4c110e30","districtName":"江油市"},{"id":"520b74666c2f419cacb47bceb95a1386","name":"仙海旅游景区","description":null,"aLevel":"4A","longitude":104.895559,"latitude":31.518722,"cityId":"08cb9ddba5324cfdb6e010fc224eb68c","cityName":"绵阳市","cityCode":"0816","districtId":"047d4176d69a49ad9442e30914dd17f0","districtName":"游仙区"},{"id":"ddee53e8db384a4285b5883cad4702b8","name":"维斯特农业休闲旅游区","description":null,"aLevel":"4A","longitude":104.452868,"latitude":31.60988,"cityId":"08cb9ddba5324cfdb6e010fc224eb68c","cityName":"绵阳市","cityCode":"0816","districtId":"8314652d59554ad59d68a7a2ed20b33c","districtName":"北川羌族自治县"},{"id":"88b872f37cbe48738f128a75b19a8503","name":"平武报恩寺景区","description":null,"aLevel":"4A","longitude":104.532259,"latitude":32.408619,"cityId":"08cb9ddba5324cfdb6e010fc224eb68c","cityName":"绵阳市","cityCode":"0816","districtId":"84c881dd91c64c37a48a22dd30c27964","districtName":"平武县"},{"id":"a5706cea98ea4458851f8d3126c116e9","name":"百年好合爱情谷景区","description":null,"aLevel":"4A","longitude":104.72898,"latitude":31.770885,"cityId":"08cb9ddba5324cfdb6e010fc224eb68c","cityName":"绵阳市","cityCode":"0816","districtId":"29d652e5ec4b4415b372be5d4c110e30","districtName":"江油市"},{"id":"ad485e057468431e88b8c3f3171fc9a2","name":"紫云花汐薰衣草庄园景区","description":null,"aLevel":"4A","longitude":104.747109,"latitude":31.774721,"cityId":"08cb9ddba5324cfdb6e010fc224eb68c","cityName":"绵阳市","cityCode":"0816","districtId":"29d652e5ec4b4415b372be5d4c110e30","districtName":"江油市"},{"id":"6a90db8459dc4dc2adf5d5896a400a5c","name":"李白纪念馆景区","description":null,"aLevel":"4A","longitude":104.739235,"latitude":31.779207,"cityId":"08cb9ddba5324cfdb6e010fc224eb68c","cityName":"绵阳市","cityCode":"0816","districtId":"29d652e5ec4b4415b372be5d4c110e30","districtName":"江油市"},{"id":"047ec340419a46c0be16eba4a1e6e472","name":"罗浮山景区","description":null,"aLevel":"4A","longitude":104.339127,"latitude":31.590906,"cityId":"08cb9ddba5324cfdb6e010fc224eb68c","cityName":"绵阳市","cityCode":"0816","districtId":"9d0fce77028049e89fb7813821ebdb28","districtName":"安州区"},{"id":"6559b5d5d81f4d78b342ec0cc6b4ee07","name":"七曲山风景区","description":null,"aLevel":"4A","longitude":105.205391,"latitude":31.69164,"cityId":"08cb9ddba5324cfdb6e010fc224eb68c","cityName":"绵阳市","cityCode":"0816","districtId":"385eb2ede6e94cbaa5ae796df308995f","districtName":"梓潼县"},{"id":"73b88f2285a14242912bf6c0610a47c2","name":"寻龙山景区","description":null,"aLevel":"4A","longitude":104.432334,"latitude":31.622111,"cityId":"08cb9ddba5324cfdb6e010fc224eb68c","cityName":"绵阳市","cityCode":"0816","districtId":"8314652d59554ad59d68a7a2ed20b33c","districtName":"北川羌族自治县"}]