[{"id":"ca37304cddb44082bfe510a786bf180d","name":"凤凰神凤文化景区","description":null,"aLevel":"4A","longitude":109.605895,"latitude":27.947223,"cityId":"503741259f2343c8a7cd2738545eaa78","cityName":"湘西土家族苗族自治州","cityCode":"0743","districtId":"bfddc761e5b14f208962b227761076cb","districtName":"凤凰县"},{"id":"98ed37dab9504bc2a8491e5148ef180c","name":"猛洞河","description":null,"aLevel":"4A","longitude":109.857082,"latitude":28.957586,"cityId":"503741259f2343c8a7cd2738545eaa78","cityName":"湘西土家族苗族自治州","cityCode":"0743","districtId":"5fb557e1723b402ba64c04d93c548d31","districtName":"永顺县"},{"id":"b32f5b46376c416eb87a4d977cbf15d8","name":"浦市景区","description":null,"aLevel":"4A","longitude":110.10747,"latitude":28.080061,"cityId":"503741259f2343c8a7cd2738545eaa78","cityName":"湘西土家族苗族自治州","cityCode":"0743","districtId":"d237356555024be3ba1485e96b234ad2","districtName":"泸溪县"},{"id":"eb73f08a255b468497246b5f7b893268","name":"老司城景区","description":null,"aLevel":"4A","longitude":109.938773,"latitude":29.011429,"cityId":"503741259f2343c8a7cd2738545eaa78","cityName":"湘西土家族苗族自治州","cityCode":"0743","districtId":"5fb557e1723b402ba64c04d93c548d31","districtName":"永顺县"},{"id":"5ac9e739fe114934bafab865ee7c5588","name":"芙蓉镇景区","description":null,"aLevel":"4A","longitude":109.943216,"latitude":28.742175,"cityId":"503741259f2343c8a7cd2738545eaa78","cityName":"湘西土家族苗族自治州","cityCode":"0743","districtId":"5fb557e1723b402ba64c04d93c548d31","districtName":"永顺县"},{"id":"6f7b89bd05e444e4bee8bc1a451d22c2","name":"红石林景区","description":null,"aLevel":"4A","longitude":109.880618,"latitude":28.705906,"cityId":"503741259f2343c8a7cd2738545eaa78","cityName":"湘西土家族苗族自治州","cityCode":"0743","districtId":"6dbd868341e44f8b9c8c5284e0391edd","districtName":"古丈县"},{"id":"65e438c63cc54818b7fac73cc5b1786b","name":"里耶古城景区","description":null,"aLevel":"4A","longitude":112.982951,"latitude":28.116007,"cityId":"503741259f2343c8a7cd2738545eaa78","cityName":"湘西土家族苗族自治州","cityCode":"0743","districtId":"ce8c1d8a0be24f5293b7b01fa169b569","districtName":"龙山县"},{"id":"2134710fe2e14889a3f9de10fe38d5ce","name":"乾州古城旅游景区","description":null,"aLevel":"4A","longitude":109.699609,"latitude":28.254149,"cityId":"503741259f2343c8a7cd2738545eaa78","cityName":"湘西土家族苗族自治州","cityCode":"0743","districtId":"af574a1c5d5d4b3a8605650a0e1b3d56","districtName":"吉首市"},{"id":"911baa8ac80144ef85aeeb94cacfb3de","name":"湘西经开区民族文化园","description":null,"aLevel":"4A","longitude":109.672117,"latitude":28.21926,"cityId":"503741259f2343c8a7cd2738545eaa78","cityName":"湘西土家族苗族自治州","cityCode":"0743","districtId":"af574a1c5d5d4b3a8605650a0e1b3d56","districtName":"吉首市"}]