[{"id":"2059fca0cd51456e8f5358538a515cec","name":"经济技术开发区德州董子园","description":null,"aLevel":"4A","longitude":116.37691,"latitude":37.429811,"cityId":"9ee8ed4700404a8b9ca4a88ebde94b05","cityName":"德州市","cityCode":"0534","districtId":"d3df2817b1774e72a1765f3da2f47743","districtName":"德城区"},{"id":"ae391fc9c76945a78caa6e6a25cbb646","name":"泉城海洋极地世界景区","description":null,"aLevel":"4A","longitude":116.844514,"latitude":36.743186,"cityId":"9ee8ed4700404a8b9ca4a88ebde94b05","cityName":"德州市","cityCode":"0534","districtId":"b732b24a975141a9a2d7dd61be27b028","districtName":"齐河县"},{"id":"3a42dac9fa45452ba166739586643886","name":"庆云海岛金山寺景区","description":null,"aLevel":"4A","longitude":117.380845,"latitude":37.814349,"cityId":"9ee8ed4700404a8b9ca4a88ebde94b05","cityName":"德州市","cityCode":"0534","districtId":"557d6a2a33ae4308b6b2f10df7805a83","districtName":"庆云县"},{"id":"fe76395a1618487f8d4a9088c6bfa7b9","name":"泉城欧乐堡梦幻世界景区","description":null,"aLevel":"4A","longitude":116.841918,"latitude":36.75094,"cityId":"9ee8ed4700404a8b9ca4a88ebde94b05","cityName":"德州市","cityCode":"0534","districtId":"b732b24a975141a9a2d7dd61be27b028","districtName":"齐河县"},{"id":"4df51ec4a1184b2d9a4e994a4e06bef4","name":"乐陵千年枣林景区","description":null,"aLevel":"4A","longitude":117.232085,"latitude":37.729769,"cityId":"9ee8ed4700404a8b9ca4a88ebde94b05","cityName":"德州市","cityCode":"0534","districtId":"627a288e82b74ff9ad34e99c36a942e8","districtName":"乐陵市"},{"id":"5082b56d508a4288afd5a93ce1358474","name":"德百温泉度假村景区","description":null,"aLevel":"4A","longitude":116.111339,"latitude":37.037179,"cityId":"9ee8ed4700404a8b9ca4a88ebde94b05","cityName":"德州市","cityCode":"0534","districtId":"acc5bf9352a84eeb8fcfb62f76561380","districtName":"夏津县"},{"id":"4866a9b3d4dc49159527f96a73625b27","name":"经济技术开发区太阳谷景区","description":null,"aLevel":"4A","longitude":116.37691,"latitude":37.429811,"cityId":"9ee8ed4700404a8b9ca4a88ebde94b05","cityName":"德州市","cityCode":"0534","districtId":"d3df2817b1774e72a1765f3da2f47743","districtName":"德城区"},{"id":"474e0af931e244449374fd47b6f1ff38","name":"夏津黄河故道森林公园","description":null,"aLevel":"4A","longitude":116.114866,"latitude":37.041324,"cityId":"9ee8ed4700404a8b9ca4a88ebde94b05","cityName":"德州市","cityCode":"0534","districtId":"acc5bf9352a84eeb8fcfb62f76561380","districtName":"夏津县"}]