[{"id":"afca0ad634cb4c7a95f7117153c661b1","name":"五店市传统文化旅游区","description":null,"aLevel":"4A","longitude":118.578759,"latitude":24.816254,"cityId":"eef1665bfeb64d4aae8d457045e43420","cityName":"泉州市","cityCode":"0595","districtId":"1a6ff8e7f9f541fcbbc8fcb03cc3cf90","districtName":"晋江市"},{"id":"b16d94a19b544abcaa8611cfd920592d","name":"中国闽台缘博物馆","description":null,"aLevel":"4A","longitude":118.590263,"latitude":24.932791,"cityId":"eef1665bfeb64d4aae8d457045e43420","cityName":"泉州市","cityCode":"0595","districtId":"848fa6e46e1d4d1284ee05d56304de87","districtName":"丰泽区"},{"id":"9182c416cd16459c82ba209c496da572","name":"泉州源和1916创意产业园景区","description":null,"aLevel":"4A","longitude":118.578793,"latitude":24.912335,"cityId":"eef1665bfeb64d4aae8d457045e43420","cityName":"泉州市","cityCode":"0595","districtId":"ef32d9371e3543fea17c7138930e801e","districtName":"鲤城区"},{"id":"f71fe98a3926483481ae365402d77505","name":"北溪文苑生态旅游区","description":null,"aLevel":"4A","longitude":118.242186,"latitude":25.242912,"cityId":"eef1665bfeb64d4aae8d457045e43420","cityName":"泉州市","cityCode":"0595","districtId":"8e1732e52b3340ef8bbd6a80f3264ffe","districtName":"永春县"},{"id":"718495a8a9ee48f19c6639e3ee26fdbb","name":"侠天下景区","description":null,"aLevel":"4A","longitude":118.595433,"latitude":24.813393,"cityId":"eef1665bfeb64d4aae8d457045e43420","cityName":"泉州市","cityCode":"0595","districtId":"1a6ff8e7f9f541fcbbc8fcb03cc3cf90","districtName":"晋江市"},{"id":"c1afb01f19b5478b8e9e4b596dee6bcb","name":"永春牛姆林生态旅游区","description":null,"aLevel":"4A","longitude":117.939683,"latitude":25.424869,"cityId":"eef1665bfeb64d4aae8d457045e43420","cityName":"泉州市","cityCode":"0595","districtId":"8e1732e52b3340ef8bbd6a80f3264ffe","districtName":"永春县"},{"id":"85b29990a7b54f9593e84bd0ef2cd8d2","name":"泉州德化九仙山风景区","description":null,"aLevel":"4A","longitude":118.120315,"latitude":25.695027,"cityId":"eef1665bfeb64d4aae8d457045e43420","cityName":"泉州市","cityCode":"0595","districtId":"8edf2d151b664e29b183ca34c58e7f53","districtName":"德化县"},{"id":"9f10a3d81c824fdd896d5bb0ec8d17bc","name":"崇武古城风景区","description":null,"aLevel":"4A","longitude":118.93237,"latitude":24.87265,"cityId":"eef1665bfeb64d4aae8d457045e43420","cityName":"泉州市","cityCode":"0595","districtId":"ee3e2cfc557d46579ff3674be6477854","districtName":"惠安县"},{"id":"d28ee32de5004ce9927476a9f13c74fc","name":"博物馆","description":null,"aLevel":"4A","longitude":118.675724,"latitude":24.874452,"cityId":"eef1665bfeb64d4aae8d457045e43420","cityName":"泉州市","cityCode":"0595","districtId":"848fa6e46e1d4d1284ee05d56304de87","districtName":"丰泽区"},{"id":"0a430a254d634949b1de92dba3558944","name":"清水岩风景旅游区","description":null,"aLevel":"4A","longitude":118.112499,"latitude":25.120994,"cityId":"eef1665bfeb64d4aae8d457045e43420","cityName":"泉州市","cityCode":"0595","districtId":"6aa629c41f8b4971bbbde6f361e50165","districtName":"安溪县"},{"id":"0541664a43c244dfa42fa6e71f3b1139","name":"泉州开元寺","description":null,"aLevel":"4A","longitude":118.585519,"latitude":24.914168,"cityId":"eef1665bfeb64d4aae8d457045e43420","cityName":"泉州市","cityCode":"0595","districtId":"ef32d9371e3543fea17c7138930e801e","districtName":"鲤城区"},{"id":"04d64bec647443cd83c1bd2569e060de","name":"石牛山景区","description":null,"aLevel":"4A","longitude":118.441359,"latitude":25.647725,"cityId":"eef1665bfeb64d4aae8d457045e43420","cityName":"泉州市","cityCode":"0595","districtId":"8edf2d151b664e29b183ca34c58e7f53","districtName":"德化县"},{"id":"5ce7a4a4267a4ceba682d587f104fcaf","name":"青少年平安教育馆","description":null,"aLevel":"4A","longitude":118.397227,"latitude":24.960035,"cityId":"eef1665bfeb64d4aae8d457045e43420","cityName":"泉州市","cityCode":"0595","districtId":"37ef6c39db104fdaaaf0c3b4f64955eb","districtName":"南安市"},{"id":"36edea202f794c2d843ae3cf189279df","name":"晋江市安平桥（五里桥）景区","description":null,"aLevel":"4A","longitude":118.448097,"latitude":24.707311,"cityId":"eef1665bfeb64d4aae8d457045e43420","cityName":"泉州市","cityCode":"0595","districtId":"37ef6c39db104fdaaaf0c3b4f64955eb","districtName":"南安市"}]