[{"id":"35b923e484764696961f09479ef9b2d3","name":"腾格里沙漠月亮湖景区","description":null,"aLevel":"4A","longitude":105.156944,"latitude":38.462514,"cityId":"ec9d25e1f50e4e9a8224d14de681170c","cityName":"阿拉善盟","cityCode":"0483","districtId":"5b26372939694e07bf91c68af886bef6","districtName":"阿拉善左旗"},{"id":"b31065fcb6b34f2bb88b145c3af5f070","name":"通湖草原旅游区","description":null,"aLevel":"4A","longitude":104.93747,"latitude":37.597939,"cityId":"ec9d25e1f50e4e9a8224d14de681170c","cityName":"阿拉善盟","cityCode":"0483","districtId":"5b26372939694e07bf91c68af886bef6","districtName":"阿拉善左旗"},{"id":"8a4b8d782f98481ea61a2c0d4eaf46c7","name":"贺兰山广宗寺景区","description":null,"aLevel":"4A","longitude":105.846789,"latitude":38.450131,"cityId":"ec9d25e1f50e4e9a8224d14de681170c","cityName":"阿拉善盟","cityCode":"0483","districtId":"5b26372939694e07bf91c68af886bef6","districtName":"阿拉善左旗"},{"id":"009e0cccbe104e5187773c22d30eec01","name":"黑城弱水胡杨风景区","description":null,"aLevel":"4A","longitude":101.010989,"latitude":41.84012,"cityId":"ec9d25e1f50e4e9a8224d14de681170c","cityName":"阿拉善盟","cityCode":"0483","districtId":"7461e296d15b435f9677b7afaa952222","districtName":"额济纳旗"},{"id":"43e2c56373e844f1a601469b19e3ed83","name":"福因寺（北寺）旅游区","description":null,"aLevel":"4A","longitude":105.864055,"latitude":38.974798,"cityId":"ec9d25e1f50e4e9a8224d14de681170c","cityName":"阿拉善盟","cityCode":"0483","districtId":"5b26372939694e07bf91c68af886bef6","districtName":"阿拉善左旗"},{"id":"87c8af52278d418e90fe4d56cdabbae3","name":"腾格里沙漠天鹅湖旅游风景区","description":null,"aLevel":"4A","longitude":105.144897,"latitude":38.713083,"cityId":"ec9d25e1f50e4e9a8224d14de681170c","cityName":"阿拉善盟","cityCode":"0483","districtId":"5b26372939694e07bf91c68af886bef6","districtName":"阿拉善左旗"},{"id":"6b5093b00c4c4d3581af72b3b68588c7","name":"阿拉善定远营古城景区","description":null,"aLevel":"4A","longitude":105.675358,"latitude":38.842613,"cityId":"ec9d25e1f50e4e9a8224d14de681170c","cityName":"阿拉善盟","cityCode":"0483","districtId":"5b26372939694e07bf91c68af886bef6","districtName":"阿拉善左旗"},{"id":"58b0d0a2bee947279bb1825c0536228b","name":"巴丹吉林沙漠景区","description":null,"aLevel":"4A","longitude":101.874728,"latitude":39.751924,"cityId":"ec9d25e1f50e4e9a8224d14de681170c","cityName":"阿拉善盟","cityCode":"0483","districtId":"2d630a6967774f32956a66af27fa3423","districtName":"阿拉善右旗"},{"id":"b4bb48227f2a4a0ab023baa120180818","name":"梦想沙漠汽车航天乐园景区","description":null,"aLevel":"4A","longitude":105.666208,"latitude":38.833589,"cityId":"ec9d25e1f50e4e9a8224d14de681170c","cityName":"阿拉善盟","cityCode":"0483","districtId":"5b26372939694e07bf91c68af886bef6","districtName":"阿拉善左旗"},{"id":"6634b0f1287240c78a62ce8c0bdb21ff","name":"金沙堡地生态旅游区","description":null,"aLevel":"4A","longitude":106.655305,"latitude":39.648738,"cityId":"ec9d25e1f50e4e9a8224d14de681170c","cityName":"阿拉善盟","cityCode":"0483","districtId":"5b26372939694e07bf91c68af886bef6","districtName":"阿拉善左旗"},{"id":"331a7c0bccb04254aceaed8dbc3127d5","name":"大漠胡杨景区","description":null,"aLevel":"4A","longitude":101.055861,"latitude":41.953963,"cityId":"ec9d25e1f50e4e9a8224d14de681170c","cityName":"阿拉善盟","cityCode":"0483","districtId":"7461e296d15b435f9677b7afaa952222","districtName":"额济纳旗"}]