[{"id":"3df9ad7011b0461ab0b0062d698e0ff7","name":"王渔洋故里景区","description":null,"aLevel":"4A","longitude":117.940854,"latitude":36.950247,"cityId":"f214987a98b5444faf0c28e5dd4242a0","cityName":"淄博市","cityCode":"0533","districtId":"1ed6cbe9b61140d89da66d58e789d348","districtName":"桓台县"},{"id":"fe968d05a5ce40f4b3a30c9609ddda3f","name":"开元溶洞景区","description":null,"aLevel":"4A","longitude":118.037503,"latitude":36.407332,"cityId":"f214987a98b5444faf0c28e5dd4242a0","cityName":"淄博市","cityCode":"0533","districtId":"3c23ff5b1b8f41038a832ead35ba1a9a","districtName":"博山区"},{"id":"af6758208e8f4ae68c3a0f4e22065681","name":"淄博中国陶瓷馆","description":null,"aLevel":"4A","longitude":118.017877,"latitude":36.807011,"cityId":"f214987a98b5444faf0c28e5dd4242a0","cityName":"淄博市","cityCode":"0533","districtId":"0b5b6c0d898e43e4bddf4e1e31e79829","districtName":"张店区"},{"id":"50dd13e609d946b1b7ee21d569ac9a57","name":"中国古车馆·太公生态文化旅游区","description":null,"aLevel":"4A","longitude":118.379183,"latitude":36.850477,"cityId":"f214987a98b5444faf0c28e5dd4242a0","cityName":"淄博市","cityCode":"0533","districtId":"dfbadfac9f3747a69db2e7923eb0ef61","districtName":"临淄区"},{"id":"b7326b7366dc44ab984a854b06665b2b","name":"博山陶瓷琉璃艺术中心景区","description":null,"aLevel":"4A","longitude":117.852416,"latitude":36.488948,"cityId":"f214987a98b5444faf0c28e5dd4242a0","cityName":"淄博市","cityCode":"0533","districtId":"3c23ff5b1b8f41038a832ead35ba1a9a","districtName":"博山区"},{"id":"a12bf99900cb4ef384d591bd60b4aa52","name":"淄博潭溪山旅游区","description":null,"aLevel":"4A","longitude":118.206054,"latitude":36.497949,"cityId":"f214987a98b5444faf0c28e5dd4242a0","cityName":"淄博市","cityCode":"0533","districtId":"f4c52a11d3f549a0bbdd21be29844706","districtName":"淄川区"},{"id":"fa91cb840d8848569ca0baa68ea94641","name":"齐山风景区","description":null,"aLevel":"4A","longitude":118.199833,"latitude":36.5147,"cityId":"f214987a98b5444faf0c28e5dd4242a0","cityName":"淄博市","cityCode":"0533","districtId":"f4c52a11d3f549a0bbdd21be29844706","districtName":"淄川区"},{"id":"f079c96b43274ef78233bfb2f0e8e2bf","name":"沂源鲁山溶洞群风景区","description":null,"aLevel":"4A","longitude":118.073889,"latitude":36.27257,"cityId":"f214987a98b5444faf0c28e5dd4242a0","cityName":"淄博市","cityCode":"0533","districtId":"b8304331ea1b4bba8ba667126a8365b6","districtName":"沂源县"},{"id":"c5d4b642de9541589c27db01d574c795","name":"原山森林公园","description":null,"aLevel":"4A","longitude":117.836257,"latitude":36.480938,"cityId":"f214987a98b5444faf0c28e5dd4242a0","cityName":"淄博市","cityCode":"0533","districtId":"3c23ff5b1b8f41038a832ead35ba1a9a","districtName":"博山区"},{"id":"77af8552d86a49cda713dcdf846ebfe6","name":"国井酒文化博览园景区","description":null,"aLevel":"4A","longitude":117.835459,"latitude":37.162611,"cityId":"f214987a98b5444faf0c28e5dd4242a0","cityName":"淄博市","cityCode":"0533","districtId":"1c4a5912b71b4087a41c36e3b78874a6","districtName":"高青县"},{"id":"1a982844787e4c9d8429eac5d6ba05f8","name":"淄博福王红木博物馆景区","description":null,"aLevel":"4A","longitude":117.887161,"latitude":36.788333,"cityId":"f214987a98b5444faf0c28e5dd4242a0","cityName":"淄博市","cityCode":"0533","districtId":"ec0de1bef0d84980aff83cd0c6a8235c","districtName":"周村区"},{"id":"79b5fcc43efe4c9da630fd8bdf22b0ae","name":"聊斋城景区","description":null,"aLevel":"4A","longitude":118.016053,"latitude":36.62869,"cityId":"f214987a98b5444faf0c28e5dd4242a0","cityName":"淄博市","cityCode":"0533","districtId":"f4c52a11d3f549a0bbdd21be29844706","districtName":"淄川区"}]