[{"id":"4692431f78f14874908f05323e8e574e","name":"蛇蟠岛景区","description":null,"aLevel":"4A","longitude":121.588168,"latitude":29.140836,"cityId":"b19a5e2014a3485193a77b29e040acfc","cityName":"台州市","cityCode":"0576","districtId":"5893c65c66d54d1f9e4f167626d5407c","districtName":"三门县"},{"id":"a31f833cd51e45f6af080e3cd8796252","name":"长屿硐天旅游区","description":null,"aLevel":"4A","longitude":121.444384,"latitude":28.437079,"cityId":"b19a5e2014a3485193a77b29e040acfc","cityName":"台州市","cityCode":"0576","districtId":"9fe52506865d4e63b06b1acd2e7e1878","districtName":"温岭市"},{"id":"1346543c12724ea6950c13ba8ddc2718","name":"九峰景区","description":null,"aLevel":"4A","longitude":121.276392,"latitude":28.640047,"cityId":"b19a5e2014a3485193a77b29e040acfc","cityName":"台州市","cityCode":"0576","districtId":"1b4001cb5d974c468eba17499551773e","districtName":"黄岩区"},{"id":"93661871da9b4998b84d19024ccf2e62","name":"江南长城旅游区","description":null,"aLevel":"4A","longitude":121.144625,"latitude":28.859042,"cityId":"b19a5e2014a3485193a77b29e040acfc","cityName":"台州市","cityCode":"0576","districtId":"62e30aa9bb274a9fa63b7b9e7ad05911","districtName":"临海市"},{"id":"988eb70160784d898b8f1efc151cf80b","name":"后岸乡居旅游","description":null,"aLevel":"4A","longitude":120.814617,"latitude":29.078661,"cityId":"b19a5e2014a3485193a77b29e040acfc","cityName":"台州市","cityCode":"0576","districtId":"be2576b2c35b4957bdae499f5b2bdb21","districtName":"天台县"},{"id":"e8153e940bf74ed7929b233864378a1c","name":"灵湖景区","description":null,"aLevel":"4A","longitude":121.176171,"latitude":28.859741,"cityId":"b19a5e2014a3485193a77b29e040acfc","cityName":"台州市","cityCode":"0576","districtId":"62e30aa9bb274a9fa63b7b9e7ad05911","districtName":"临海市"},{"id":"209a79ef9c9140afb9ba29b016edba02","name":"仙居氧吧小镇景区","description":null,"aLevel":"4A","longitude":120.728733,"latitude":28.846856,"cityId":"b19a5e2014a3485193a77b29e040acfc","cityName":"台州市","cityCode":"0576","districtId":"6678cb6f16b8445f992fb322e82d743f","districtName":"仙居县"},{"id":"ac012e20cb14487ca84b44736ebe9394","name":"大鹿岛景区","description":null,"aLevel":"4A","longitude":121.40789,"latitude":28.088359,"cityId":"b19a5e2014a3485193a77b29e040acfc","cityName":"台州市","cityCode":"0576","districtId":"7c751d21a86d42a3ad16a81078a87be9","districtName":"玉环市"},{"id":"1d40c3305b3f400f83ac52f9f76965c7","name":"永安溪休闲绿道景区","description":null,"aLevel":"4A","longitude":120.75405,"latitude":28.849831,"cityId":"b19a5e2014a3485193a77b29e040acfc","cityName":"台州市","cityCode":"0576","districtId":"6678cb6f16b8445f992fb322e82d743f","districtName":"仙居县"},{"id":"79dc571097eb48b8ba11548a1bbc0679","name":"牛头山景区","description":null,"aLevel":"4A","longitude":108.947629,"latitude":31.250788,"cityId":"b19a5e2014a3485193a77b29e040acfc","cityName":"台州市","cityCode":"0576","districtId":"62e30aa9bb274a9fa63b7b9e7ad05911","districtName":"临海市"},{"id":"253d198a72f345868f898bf78599c4dc","name":"柔川景区","description":null,"aLevel":"4A","longitude":121.008514,"latitude":28.640792,"cityId":"b19a5e2014a3485193a77b29e040acfc","cityName":"台州市","cityCode":"0576","districtId":"1b4001cb5d974c468eba17499551773e","districtName":"黄岩区"},{"id":"a2a3b626b4e84f20b757a7a92f266d75","name":"南屏乡旅游景区","description":null,"aLevel":"4A","longitude":120.814617,"latitude":29.078661,"cityId":"b19a5e2014a3485193a77b29e040acfc","cityName":"台州市","cityCode":"0576","districtId":"be2576b2c35b4957bdae499f5b2bdb21","districtName":"天台县"},{"id":"a95f5d02dc374eafa5deaa4110638521","name":"漩门湾观光农业园景区","description":null,"aLevel":"4A","longitude":121.268086,"latitude":28.245586,"cityId":"b19a5e2014a3485193a77b29e040acfc","cityName":"台州市","cityCode":"0576","districtId":"7c751d21a86d42a3ad16a81078a87be9","districtName":"玉环市"},{"id":"00fdc3661fb04b05b967b9111ad8ddb5","name":"台州海洋世界","description":null,"aLevel":"4A","longitude":121.414335,"latitude":28.660704,"cityId":"b19a5e2014a3485193a77b29e040acfc","cityName":"台州市","cityCode":"0576","districtId":"1e89f6432ec24a3290a6ff86a1a53399","districtName":"椒江区"},{"id":"127832be54704c48bdb2d3755c1e8eed","name":"玉环漩门湾湿地景区","description":null,"aLevel":"4A","longitude":121.249584,"latitude":28.245747,"cityId":"b19a5e2014a3485193a77b29e040acfc","cityName":"台州市","cityCode":"0576","districtId":"7c751d21a86d42a3ad16a81078a87be9","districtName":"玉环市"}]