[{"id":"88c28448e2bf482899a100497f766887","name":"沈阳森林动物园景区","description":null,"aLevel":"4A","longitude":123.68408,"latitude":41.928501,"cityId":"cd1c766be43240129d53b4f4cf309291","cityName":"沈阳市","cityCode":"024","districtId":"fa0404f05f874cb19cbe2849eaaae31a","districtName":"浑南区"},{"id":"32610a28c53a44bb826a0b36edaee930","name":"华晨宝马铁西工厂景区","description":null,"aLevel":"4A","longitude":123.161016,"latitude":41.680928,"cityId":"cd1c766be43240129d53b4f4cf309291","cityName":"沈阳市","cityCode":"024","districtId":"613fd67d35c047f2823b7d8333794c3f","districtName":"铁西区"},{"id":"200ac61b82a34d048ae71e5a4458d9b7","name":"爱新觉罗皇家博物院","description":null,"aLevel":"4A","longitude":123.308568,"latitude":42.335334,"cityId":"cd1c766be43240129d53b4f4cf309291","cityName":"沈阳市","cityCode":"024","districtId":"56a83e57d9da4397bed937cb2e6c7293","districtName":"法库县"},{"id":"a20553af2486494db7da2343dc4ec7e8","name":"东陵区东陵公园景区","description":null,"aLevel":"4A","longitude":123.592265,"latitude":41.82882,"cityId":"cd1c766be43240129d53b4f4cf309291","cityName":"沈阳市","cityCode":"024","districtId":"fa0404f05f874cb19cbe2849eaaae31a","districtName":"浑南区"},{"id":"341c5ae84453435694942c0607453d80","name":"沈阳怪坡风景区","description":null,"aLevel":"4A","longitude":123.63725,"latitude":42.060438,"cityId":"cd1c766be43240129d53b4f4cf309291","cityName":"沈阳市","cityCode":"024","districtId":"7951a6fe28e54f509a82570544f3c41e","districtName":"沈北新区"},{"id":"9ce56177b17045bc96ba8e1d45f5095d","name":"沈阳故宫博物馆","description":null,"aLevel":"4A","longitude":123.454343,"latitude":41.797344,"cityId":"cd1c766be43240129d53b4f4cf309291","cityName":"沈阳市","cityCode":"024","districtId":"2a5ea1ae417e4a23b203959b9ff0627d","districtName":"沈河区"},{"id":"24a8908d643e4c3f9b3591e3456994a8","name":"沈阳科学宫景区","description":null,"aLevel":"4A","longitude":123.436297,"latitude":41.761323,"cityId":"cd1c766be43240129d53b4f4cf309291","cityName":"沈阳市","cityCode":"024","districtId":"2a5ea1ae417e4a23b203959b9ff0627d","districtName":"沈河区"},{"id":"86a3549000ac41cc9b7d9ab543341902","name":"北陵公园","description":null,"aLevel":"4A","longitude":123.428469,"latitude":41.851637,"cityId":"cd1c766be43240129d53b4f4cf309291","cityName":"沈阳市","cityCode":"024","districtId":"cc27bb3631f1405c94c148fca49b7760","districtName":"皇姑区"},{"id":"e8b307fbaf694c21aabb9e811b6c070a","name":"沈阳方特欢乐世界","description":null,"aLevel":"4A","longitude":123.418956,"latitude":41.963758,"cityId":"cd1c766be43240129d53b4f4cf309291","cityName":"沈阳市","cityCode":"024","districtId":"7951a6fe28e54f509a82570544f3c41e","districtName":"沈北新区"},{"id":"d05d5e10d9ab4a2f84bcb55d337ddbf0","name":"张氏帅府博物馆","description":null,"aLevel":"4A","longitude":123.45884,"latitude":41.795688,"cityId":"cd1c766be43240129d53b4f4cf309291","cityName":"沈阳市","cityCode":"024","districtId":"2a5ea1ae417e4a23b203959b9ff0627d","districtName":"沈河区"},{"id":"bfb91be663914d728959d795e13c930d","name":"沈阳工业博物馆景区","description":null,"aLevel":"4A","longitude":123.354792,"latitude":41.823012,"cityId":"cd1c766be43240129d53b4f4cf309291","cityName":"沈阳市","cityCode":"024","districtId":"613fd67d35c047f2823b7d8333794c3f","districtName":"铁西区"},{"id":"62e40d7780b443d1baf7f3769a7ecd96","name":"东陵区沈阳森林动物园景区","description":null,"aLevel":"4A","longitude":123.68408,"latitude":41.928501,"cityId":"cd1c766be43240129d53b4f4cf309291","cityName":"沈阳市","cityCode":"024","districtId":"fa0404f05f874cb19cbe2849eaaae31a","districtName":"浑南区"},{"id":"15ca3849e16c4d2a81b0fced6146d089","name":"黄河军事文化博览园景区","description":null,"aLevel":"4A","longitude":122.782259,"latitude":42.140543,"cityId":"cd1c766be43240129d53b4f4cf309291","cityName":"沈阳市","cityCode":"024","districtId":"7313f19173a64d999a23cf9e85cbe4a3","districtName":"新民市"},{"id":"ea7a710c999d49d7a49fffaa7b59ea79","name":" 沈阳新民三农博览园景区","description":null,"aLevel":"4A","longitude":122.835964,"latitude":41.985757,"cityId":"cd1c766be43240129d53b4f4cf309291","cityName":"沈阳市","cityCode":"024","districtId":"7313f19173a64d999a23cf9e85cbe4a3","districtName":"新民市"}]