[{"id":"b7ae1c84ced34ef28b8d03430aafa836","name":"康乐镇冰沟丹霞景区","description":null,"aLevel":"4A","longitude":99.909647,"latitude":38.966708,"cityId":"825de516ba514729a10bfb5f09feda67","cityName":"张掖市","cityCode":"0936","districtId":"458a249cd2e94e299e529fbc086eb0e2","districtName":"肃南裕固族自治县"},{"id":"007bb5bf56c044d6af4f304ccb8f86ee","name":"马蹄寺旅游景区","description":null,"aLevel":"4A","longitude":100.416624,"latitude":38.484258,"cityId":"825de516ba514729a10bfb5f09feda67","cityName":"张掖市","cityCode":"0936","districtId":"458a249cd2e94e299e529fbc086eb0e2","districtName":"肃南裕固族自治县"},{"id":"98b0496a21c34ba9a3563299355ed469","name":"流沙河景区","description":null,"aLevel":"4A","longitude":100.17584,"latitude":39.116346,"cityId":"825de516ba514729a10bfb5f09feda67","cityName":"张掖市","cityCode":"0936","districtId":"2bba86376c4e49559deab74dc1625640","districtName":"临泽县"},{"id":"c9c24cd363e0468e97fa33a40f1a8891","name":"张掖湿地公园","description":null,"aLevel":"4A","longitude":100.453779,"latitude":38.975286,"cityId":"825de516ba514729a10bfb5f09feda67","cityName":"张掖市","cityCode":"0936","districtId":"528a13e10a394ef587c02c881a33a5b6","districtName":"甘州区"},{"id":"85fbd1b20e2a4ee8b6cb348654c68f15","name":"张掖大佛寺景区","description":null,"aLevel":"4A","longitude":100.449858,"latitude":38.924766,"cityId":"825de516ba514729a10bfb5f09feda67","cityName":"张掖市","cityCode":"0936","districtId":"528a13e10a394ef587c02c881a33a5b6","districtName":"甘州区"},{"id":"bd3d9dfd24ac42bf9ef43e408d54a025","name":"平山湖景区","description":null,"aLevel":"4A","longitude":100.83178,"latitude":39.166377,"cityId":"825de516ba514729a10bfb5f09feda67","cityName":"张掖市","cityCode":"0936","districtId":"528a13e10a394ef587c02c881a33a5b6","districtName":"甘州区"},{"id":"385c4c4798024c6c89bd4417f4b4dc4d","name":"大佛寺景区","description":null,"aLevel":"4A","longitude":101.023644,"latitude":38.795254,"cityId":"825de516ba514729a10bfb5f09feda67","cityName":"张掖市","cityCode":"0936","districtId":"c28298a590334021a1fa58ca837e1924","districtName":"山丹县"},{"id":"190fcc48b03c428ea8954bd3ad329578","name":"月牙湖景区","description":null,"aLevel":"4A","longitude":99.792724,"latitude":39.378838,"cityId":"825de516ba514729a10bfb5f09feda67","cityName":"张掖市","cityCode":"0936","districtId":"2469836e78aa47af857b611635a0a253","districtName":"高台县"},{"id":"069e142d3ac9404f9fc35d0d835f4a0c","name":"文殊寺石窟群旅游景区","description":null,"aLevel":"4A","longitude":98.34811,"latitude":39.652841,"cityId":"825de516ba514729a10bfb5f09feda67","cityName":"张掖市","cityCode":"0936","districtId":"458a249cd2e94e299e529fbc086eb0e2","districtName":"肃南裕固族自治县"},{"id":"10ada2d4ce9b4f2eaf7c6fbae49b39e5","name":"扁都口生态休闲旅游区","description":null,"aLevel":"4A","longitude":100.942207,"latitude":38.220882,"cityId":"825de516ba514729a10bfb5f09feda67","cityName":"张掖市","cityCode":"0936","districtId":"7fe9bb13f77a44d2842a745e3501b1e6","districtName":"民乐县"},{"id":"29775a1957d442dab2996fdd64e58791","name":"焉支山景区","description":null,"aLevel":"4A","longitude":101.196702,"latitude":38.490819,"cityId":"825de516ba514729a10bfb5f09feda67","cityName":"张掖市","cityCode":"0936","districtId":"c28298a590334021a1fa58ca837e1924","districtName":"山丹县"},{"id":"8bcd43e385d043fb9ea9842ae09e9b96","name":"裕固族民俗度假区","description":null,"aLevel":"4A","longitude":99.615601,"latitude":38.836931,"cityId":"825de516ba514729a10bfb5f09feda67","cityName":"张掖市","cityCode":"0936","districtId":"458a249cd2e94e299e529fbc086eb0e2","districtName":"肃南裕固族自治县"},{"id":"3b6dc9e7ac9a402b9bfe96ddc5c17292","name":"中华裕固风情走廊景区","description":null,"aLevel":"4A","longitude":99.910929,"latitude":38.951199,"cityId":"825de516ba514729a10bfb5f09feda67","cityName":"张掖市","cityCode":"0936","districtId":"458a249cd2e94e299e529fbc086eb0e2","districtName":"肃南裕固族自治县"},{"id":"7744c66f23764cdfa3fa9fa38bde9415","name":"张掖芦水湾生态景区","description":null,"aLevel":"4A","longitude":100.422852,"latitude":38.964882,"cityId":"825de516ba514729a10bfb5f09feda67","cityName":"张掖市","cityCode":"0936","districtId":"528a13e10a394ef587c02c881a33a5b6","districtName":"甘州区"},{"id":"717653e7b88449bb8b73b35be900acdd","name":"中国工农红军西路军纪念馆","description":null,"aLevel":"4A","longitude":99.825379,"latitude":39.371128,"cityId":"825de516ba514729a10bfb5f09feda67","cityName":"张掖市","cityCode":"0936","districtId":"2469836e78aa47af857b611635a0a253","districtName":"高台县"},{"id":"5de1d158c9ea4ca2aa28eba9bd5b88ac","name":"大湖湾文化旅游风景区","description":null,"aLevel":"4A","longitude":99.745956,"latitude":39.402663,"cityId":"825de516ba514729a10bfb5f09feda67","cityName":"张掖市","cityCode":"0936","districtId":"2469836e78aa47af857b611635a0a253","districtName":"高台县"}]