[{"id":"076e30368aca4a1197420324ac906b79","name":"无锡宜兴市陶祖圣境景区","description":null,"aLevel":"4A","longitude":119.733278,"latitude":31.184329,"cityId":"6a5c762d07224fbca695f7a79c4e1db2","cityName":"无锡市","cityCode":"0510","districtId":"a1f48cc59c3449b2a9691c19a5fc0b26","districtName":"宜兴市"},{"id":"286869d7a0c04fb2b6db04ce1a379c2e","name":"清名桥古运河景区","description":null,"aLevel":"4A","longitude":120.318564,"latitude":31.557328,"cityId":"6a5c762d07224fbca695f7a79c4e1db2","cityName":"无锡市","cityCode":"0510","districtId":"d4c50f2df1134f569c172ab35aa945a1","districtName":"梁溪区"},{"id":"593a0de4c96547bcbc250a171a312f93","name":"无锡宜兴市竹海风景区","description":null,"aLevel":"4A","longitude":119.708221,"latitude":31.172049,"cityId":"6a5c762d07224fbca695f7a79c4e1db2","cityName":"无锡市","cityCode":"0510","districtId":"a1f48cc59c3449b2a9691c19a5fc0b26","districtName":"宜兴市"},{"id":"db92e15657554c23ac6a23121900b533","name":"中华赏石园景区","description":null,"aLevel":"4A","longitude":120.50823,"latitude":31.502513,"cityId":"6a5c762d07224fbca695f7a79c4e1db2","cityName":"无锡市","cityCode":"0510","districtId":"e3490bdbed5244dea02a5ddb677f73da","districtName":"新吴区"},{"id":"36c061f79dd4476294bb2cc63fd744df","name":"无锡宜兴市云湖旅游景区","description":null,"aLevel":"4A","longitude":119.575499,"latitude":31.284757,"cityId":"6a5c762d07224fbca695f7a79c4e1db2","cityName":"无锡市","cityCode":"0510","districtId":"a1f48cc59c3449b2a9691c19a5fc0b26","districtName":"宜兴市"},{"id":"543aacba5a0346c289973a0f0bd6a6fc","name":"无锡宜兴市陶瓷博物馆","description":null,"aLevel":"4A","longitude":119.832336,"latitude":31.259111,"cityId":"6a5c762d07224fbca695f7a79c4e1db2","cityName":"无锡市","cityCode":"0510","districtId":"a1f48cc59c3449b2a9691c19a5fc0b26","districtName":"宜兴市"},{"id":"9bbefbbd5dd1421b9089405ea83393c3","name":"无锡江阴市滨江要塞旅游区","description":null,"aLevel":"4A","longitude":120.290416,"latitude":31.933347,"cityId":"6a5c762d07224fbca695f7a79c4e1db2","cityName":"无锡市","cityCode":"0510","districtId":"97e6a7a62ae14cada20335f31202958e","districtName":"江阴市"},{"id":"c740b4c096b44c37ab2f5136910630ba","name":"南禅寺景区","description":null,"aLevel":"4A","longitude":120.30864,"latitude":31.566744,"cityId":"6a5c762d07224fbca695f7a79c4e1db2","cityName":"无锡市","cityCode":"0510","districtId":"d4c50f2df1134f569c172ab35aa945a1","districtName":"梁溪区"},{"id":"0f9897cba3554f679516522a5ef70c6c","name":"梅园横山风景区","description":null,"aLevel":"4A","longitude":119.567195,"latitude":31.27707,"cityId":"6a5c762d07224fbca695f7a79c4e1db2","cityName":"无锡市","cityCode":"0510","districtId":"a1f48cc59c3449b2a9691c19a5fc0b26","districtName":"宜兴市"},{"id":"bcbfd0e655fc4b8d973956e1dd0874e0","name":"阳山桃花源景区","description":null,"aLevel":"4A","longitude":120.118582,"latitude":31.589848,"cityId":"6a5c762d07224fbca695f7a79c4e1db2","cityName":"无锡市","cityCode":"0510","districtId":"551f63a2d556446b8cca54dd0ac5144e","districtName":"惠山区"},{"id":"31cd398bd70f466dbd62590383f7e11e","name":"鸿山泰伯景区","description":null,"aLevel":"4A","longitude":120.489958,"latitude":31.548979,"cityId":"6a5c762d07224fbca695f7a79c4e1db2","cityName":"无锡市","cityCode":"0510","districtId":"e3490bdbed5244dea02a5ddb677f73da","districtName":"新吴区"},{"id":"4b9ac9bcf8204d01932475017161a3b6","name":"无锡影都文化旅游区","description":null,"aLevel":"4A","longitude":120.311889,"latitude":31.491064,"cityId":"6a5c762d07224fbca695f7a79c4e1db2","cityName":"无锡市","cityCode":"0510","districtId":null,"districtName":""},{"id":"3d3567753b8540acb6797e688819fb49","name":"无锡宜兴市龙背山森林公园","description":null,"aLevel":"4A","longitude":119.811673,"latitude":31.334088,"cityId":"6a5c762d07224fbca695f7a79c4e1db2","cityName":"无锡市","cityCode":"0510","districtId":"a1f48cc59c3449b2a9691c19a5fc0b26","districtName":"宜兴市"},{"id":"eeb80e17e2a64551b49f93bb817cd8a4","name":"无锡博物院","description":null,"aLevel":"4A","longitude":120.306084,"latitude":31.549849,"cityId":"6a5c762d07224fbca695f7a79c4e1db2","cityName":"无锡市","cityCode":"0510","districtId":"d4c50f2df1134f569c172ab35aa945a1","districtName":"梁溪区"},{"id":"b6f6e436e6924f3bbb0b9fc3750e5de9","name":"无锡宜兴市团氿风景区","description":null,"aLevel":"4A","longitude":119.803392,"latitude":31.377673,"cityId":"6a5c762d07224fbca695f7a79c4e1db2","cityName":"无锡市","cityCode":"0510","districtId":"a1f48cc59c3449b2a9691c19a5fc0b26","districtName":"宜兴市"},{"id":"ccd5719d9d384c43aa7ea662cb736417","name":"荡口古镇景区","description":null,"aLevel":"4A","longitude":120.550601,"latitude":31.525378,"cityId":"6a5c762d07224fbca695f7a79c4e1db2","cityName":"无锡市","cityCode":"0510","districtId":"5ecd77755d9f41a48a63f1cfe1e055a0","districtName":"锡山区"},{"id":"ed9800cedf8d45a8ac01aa5359959865","name":"东林书院","description":null,"aLevel":"4A","longitude":120.309267,"latitude":31.575992,"cityId":"6a5c762d07224fbca695f7a79c4e1db2","cityName":"无锡市","cityCode":"0510","districtId":"d4c50f2df1134f569c172ab35aa945a1","districtName":"梁溪区"},{"id":"3a2c50ccab82442ca3d1adc9b6504999","name":"崇安寺景区","description":null,"aLevel":"4A","longitude":120.299821,"latitude":31.579367,"cityId":"6a5c762d07224fbca695f7a79c4e1db2","cityName":"无锡市","cityCode":"0510","districtId":"d4c50f2df1134f569c172ab35aa945a1","districtName":"梁溪区"},{"id":"2d5ad0a166874b5fa57eb86ce0ac18db","name":"阖闾城遗址博物馆","description":null,"aLevel":"4A","longitude":120.135095,"latitude":31.511979,"cityId":"6a5c762d07224fbca695f7a79c4e1db2","cityName":"无锡市","cityCode":"0510","districtId":"119ee77ccac74fbf8c532e2b8901c22b","districtName":"滨湖区"},{"id":"1908c5c1006940a2b641b8e133337fc9","name":"蠡园公园","description":null,"aLevel":"4A","longitude":120.253145,"latitude":31.546819,"cityId":"6a5c762d07224fbca695f7a79c4e1db2","cityName":"无锡市","cityCode":"0510","districtId":"119ee77ccac74fbf8c532e2b8901c22b","districtName":"滨湖区"},{"id":"22ab32f4e0d140cba121c6175445f2a4","name":"薛福成故居","description":null,"aLevel":"4A","longitude":120.296678,"latitude":31.570953,"cityId":"6a5c762d07224fbca695f7a79c4e1db2","cityName":"无锡市","cityCode":"0510","districtId":"d4c50f2df1134f569c172ab35aa945a1","districtName":"梁溪区"},{"id":"ab05216567bb471980d0d4bd5d6f958f","name":"无锡宜兴市张公洞旅游景区","description":null,"aLevel":"4A","longitude":119.784755,"latitude":31.249802,"cityId":"6a5c762d07224fbca695f7a79c4e1db2","cityName":"无锡市","cityCode":"0510","districtId":"a1f48cc59c3449b2a9691c19a5fc0b26","districtName":"宜兴市"},{"id":"1c8a4e19306a4d32b83cd98d5b3b183b","name":"中国吴文化博物馆•鸿山遗址博物馆","description":null,"aLevel":"4A","longitude":120.50753,"latitude":31.492677,"cityId":"6a5c762d07224fbca695f7a79c4e1db2","cityName":"无锡市","cityCode":"0510","districtId":"e3490bdbed5244dea02a5ddb677f73da","districtName":"新吴区"},{"id":"a9c86cfd39ee4b108122e905208aa3db","name":"无锡动物园•太湖欢乐园","description":null,"aLevel":"4A","longitude":120.171334,"latitude":31.514682,"cityId":"6a5c762d07224fbca695f7a79c4e1db2","cityName":"无锡市","cityCode":"0510","districtId":"119ee77ccac74fbf8c532e2b8901c22b","districtName":"滨湖区"},{"id":"a8fa5b1e9eed4019b322f3c44e797005","name":"无锡宜兴市善卷洞景区","description":null,"aLevel":"4A","longitude":119.669541,"latitude":31.298506,"cityId":"6a5c762d07224fbca695f7a79c4e1db2","cityName":"无锡市","cityCode":"0510","districtId":"a1f48cc59c3449b2a9691c19a5fc0b26","districtName":"宜兴市"},{"id":"bbb541e4513747e7bd4bf8afe089bc45","name":"无锡江阴市江苏学政文化旅游区","description":null,"aLevel":"4A","longitude":120.272213,"latitude":31.907696,"cityId":"6a5c762d07224fbca695f7a79c4e1db2","cityName":"无锡市","cityCode":"0510","districtId":"97e6a7a62ae14cada20335f31202958e","districtName":"江阴市"}]