[{"id":"bc8760ffcbc541c9b4541fb60da8d0e7","name":"虹山湖景区","description":null,"aLevel":"4A","longitude":105.93951,"latitude":26.255588,"cityId":"99fce472f6fd4536a876a88f4853f774","cityName":"安顺市","cityCode":"0853","districtId":"5f1938f252f047f7940467547d70cb6a","districtName":"西秀区"},{"id":"7048900b7ebd49c2bdb924538c202e79","name":"贵安新区云漫湖休闲旅游区","description":null,"aLevel":"4A","longitude":106.436148,"latitude":26.370514,"cityId":"99fce472f6fd4536a876a88f4853f774","cityName":"安顺市","cityCode":"0853","districtId":"15a9482363674e3eb432c4d10a5fdee7","districtName":"平坝区"},{"id":"d001b06f50aa408789732f60bb448de8","name":"经开区多彩万象城旅游区","description":null,"aLevel":"4A","longitude":105.869309,"latitude":26.213382,"cityId":"99fce472f6fd4536a876a88f4853f774","cityName":"安顺市","cityCode":"0853","districtId":"5f1938f252f047f7940467547d70cb6a","districtName":"西秀区"},{"id":"1373d3319e7349b5ab1b49534e8610b3","name":"云峰八寨文化旅游景区","description":null,"aLevel":"4A","longitude":106.097717,"latitude":26.293569,"cityId":"99fce472f6fd4536a876a88f4853f774","cityName":"安顺市","cityCode":"0853","districtId":"5f1938f252f047f7940467547d70cb6a","districtName":"西秀区"},{"id":"33bdffdc40b84ca0b78289d975c128db","name":"经开区兴伟石博园景区","description":null,"aLevel":"4A","longitude":105.869309,"latitude":26.213382,"cityId":"99fce472f6fd4536a876a88f4853f774","cityName":"安顺市","cityCode":"0853","districtId":"5f1938f252f047f7940467547d70cb6a","districtName":"西秀区"},{"id":"c9f87ef4966f4969b03b9e095fc3d3fd","name":"美丽乡村小河湾旅游景区","description":null,"aLevel":"4A","longitude":106.333957,"latitude":26.409999,"cityId":"99fce472f6fd4536a876a88f4853f774","cityName":"安顺市","cityCode":"0853","districtId":"15a9482363674e3eb432c4d10a5fdee7","districtName":"平坝区"},{"id":"0ea6a44efcd94a7fb250b6a91a6edddd","name":"天龙屯堡旅游景区","description":null,"aLevel":"4A","longitude":106.162616,"latitude":26.353711,"cityId":"99fce472f6fd4536a876a88f4853f774","cityName":"安顺市","cityCode":"0853","districtId":"15a9482363674e3eb432c4d10a5fdee7","districtName":"平坝区"},{"id":"32c538b4eb704257bc11f05c78820300","name":"格凸河穿洞风景区","description":null,"aLevel":"4A","longitude":106.264668,"latitude":25.687726,"cityId":"99fce472f6fd4536a876a88f4853f774","cityName":"安顺市","cityCode":"0853","districtId":"09ab4a6d87ca4a75af5a6eb75515dc7f","districtName":"紫云苗族布依族自治县"},{"id":"4fc8ed26c2094c7391f4f7047df034c7","name":"夜郎洞景区","description":null,"aLevel":"4A","longitude":105.631397,"latitude":26.087953,"cityId":"99fce472f6fd4536a876a88f4853f774","cityName":"安顺市","cityCode":"0853","districtId":"3db1b13eedd3452d98aa0e42000aa78f","districtName":"镇宁布依族苗族自治县"}]