[{"id":"d1ef2df72b2248c7af0813ecc2418864","name":"泗张镇万紫千红生态养生旅游区","description":null,"aLevel":"4A","longitude":117.397418,"latitude":35.503766,"cityId":"a9335c107b43451995d68a7e735983b5","cityName":"济宁市","cityCode":"0537","districtId":"2154050294904a8b877bee93628635b8","districtName":"泗水县"},{"id":"a021eeb3d9544aea922c2ffc38a23b35","name":"明鲁王陵景区","description":null,"aLevel":"4A","longitude":117.012251,"latitude":35.466017,"cityId":"a9335c107b43451995d68a7e735983b5","cityName":"济宁市","cityCode":"0537","districtId":"1e08158180154dc98c85ae1fdd9e3346","districtName":"邹城市"},{"id":"2ad94a836b1e4b1ba82332a74a74b759","name":"南池景区","description":null,"aLevel":"4A","longitude":116.581945,"latitude":35.392659,"cityId":"a9335c107b43451995d68a7e735983b5","cityName":"济宁市","cityCode":"0537","districtId":"dcaa190f0ae1414290e4aab94d5718ed","districtName":"任城区"},{"id":"5686ba61aac64f4bb0a340928d2b5e04","name":"孟庙孟府景区","description":null,"aLevel":"4A","longitude":116.973687,"latitude":35.389335,"cityId":"a9335c107b43451995d68a7e735983b5","cityName":"济宁市","cityCode":"0537","districtId":"1e08158180154dc98c85ae1fdd9e3346","districtName":"邹城市"},{"id":"d77062e1a392476cb93a4461a7d2aeb5","name":"羊山古镇军事旅游区","description":null,"aLevel":"4A","longitude":116.244208,"latitude":35.169446,"cityId":"a9335c107b43451995d68a7e735983b5","cityName":"济宁市","cityCode":"0537","districtId":"83bcc273bf1b44feafd0053312b201c7","districtName":"金乡县"},{"id":"fc205557f29a40999188468da3007601","name":"上九山村景区","description":null,"aLevel":"4A","longitude":116.87733,"latitude":35.19994,"cityId":"a9335c107b43451995d68a7e735983b5","cityName":"济宁市","cityCode":"0537","districtId":"1e08158180154dc98c85ae1fdd9e3346","districtName":"邹城市"},{"id":"d78b3c1da4314895ab84507daab94382","name":"泗水滨景区","description":null,"aLevel":"4A","longitude":117.279584,"latitude":35.643518,"cityId":"a9335c107b43451995d68a7e735983b5","cityName":"济宁市","cityCode":"0537","districtId":"2154050294904a8b877bee93628635b8","districtName":"泗水县"},{"id":"2c06af53b6e44c62bc37641a3aa093ad","name":"峄山风景旅游区","description":null,"aLevel":"4A","longitude":117.032017,"latitude":35.327488,"cityId":"a9335c107b43451995d68a7e735983b5","cityName":"济宁市","cityCode":"0537","districtId":"1e08158180154dc98c85ae1fdd9e3346","districtName":"邹城市"},{"id":"3ebd31a5495e4bab998981f7a9dcbae6","name":"兴隆文化园","description":null,"aLevel":"4A","longitude":116.837082,"latitude":35.559011,"cityId":"a9335c107b43451995d68a7e735983b5","cityName":"济宁市","cityCode":"0537","districtId":"2108e49d9dc54d76a2ca9cc88ce6b100","districtName":"兖州区"},{"id":"ecf702ab970d4eae970e8e5b49e7e379","name":"微山湖旅游区","description":null,"aLevel":"4A","longitude":117.22954,"latitude":34.716453,"cityId":"a9335c107b43451995d68a7e735983b5","cityName":"济宁市","cityCode":"0537","districtId":"c97c0553e5d3452c83e9faafb63dff99","districtName":"微山县"},{"id":"b3645b6886aa47e99f6e9440b04af7fd","name":"孔子六艺城景区","description":null,"aLevel":"4A","longitude":116.996504,"latitude":35.581336,"cityId":"a9335c107b43451995d68a7e735983b5","cityName":"济宁市","cityCode":"0537","districtId":"1e50b6153b744c00a5886441f00e0a63","districtName":"曲阜市"},{"id":"6a413da207774f328ff79fa01dabf85d","name":"尼山孔庙及书院景区","description":null,"aLevel":"4A","longitude":117.22313,"latitude":35.50315,"cityId":"a9335c107b43451995d68a7e735983b5","cityName":"济宁市","cityCode":"0537","districtId":"1e50b6153b744c00a5886441f00e0a63","districtName":"曲阜市"},{"id":"b35b161c3b514d4391f3a025e081d41c","name":"梁山旅游风景区","description":null,"aLevel":"4A","longitude":116.105828,"latitude":35.786648,"cityId":"a9335c107b43451995d68a7e735983b5","cityName":"济宁市","cityCode":"0537","districtId":"c689af5a0f69445a9f00ce56ba817c38","districtName":"梁山县"},{"id":"b628750e91714012ad95a66225273948","name":"太白湖新区太白湖景区","description":null,"aLevel":"4A","longitude":116.584003,"latitude":35.331724,"cityId":"a9335c107b43451995d68a7e735983b5","cityName":"济宁市","cityCode":"0537","districtId":"dcaa190f0ae1414290e4aab94d5718ed","districtName":"任城区"},{"id":"0f158324f028477e91c1dc26026ec989","name":"莲花湖湿地","description":null,"aLevel":"4A","longitude":116.517991,"latitude":35.764344,"cityId":"a9335c107b43451995d68a7e735983b5","cityName":"济宁市","cityCode":"0537","districtId":"2d4f20ad8a2642d8b21ab8e1f29f959d","districtName":"汶上县"},{"id":"2bf771ff20f741e2809cf41e0803d189","name":"宝相寺景区","description":null,"aLevel":"4A","longitude":116.488482,"latitude":35.728574,"cityId":"a9335c107b43451995d68a7e735983b5","cityName":"济宁市","cityCode":"0537","districtId":"2d4f20ad8a2642d8b21ab8e1f29f959d","districtName":"汶上县"}]