[{"id":"653027c0060f4758b7331a1605631fe2","name":"大沙头生态文化旅游区","description":null,"aLevel":"4A","longitude":107.445974,"latitude":38.157225,"cityId":"5d8e43b7f1434e93a7932d8ab5f85211","cityName":"鄂尔多斯市","cityCode":"0477","districtId":"dcd3f8dceeb44c6f8120ef005b2f4504","districtName":"鄂托克前旗"},{"id":"3a0cff6106854628802b1af624c59629","name":"东联动漫城景区","description":null,"aLevel":"4A","longitude":109.713815,"latitude":39.848225,"cityId":"5d8e43b7f1434e93a7932d8ab5f85211","cityName":"鄂尔多斯市","cityCode":"0477","districtId":"a96ff86b7811497f87d8877c4db77da8","districtName":"东胜区"},{"id":"c3df474f050b4cadaa3b1f3b1f0d32c6","name":"苏泊罕大草原旅游景区","description":null,"aLevel":"4A","longitude":109.360729,"latitude":39.670489,"cityId":"5d8e43b7f1434e93a7932d8ab5f85211","cityName":"鄂尔多斯市","cityCode":"0477","districtId":"873462ba347e4c67aed45634ebe0159e","districtName":"伊金霍洛旗"},{"id":"50cf29f405344e98b9551f4b6d43a323","name":"布龙湖温泉度假区","description":null,"aLevel":"4A","longitude":107.975948,"latitude":39.089549,"cityId":"5d8e43b7f1434e93a7932d8ab5f85211","cityName":"鄂尔多斯市","cityCode":"0477","districtId":"679f13415e694352a2286016bfb85e1a","districtName":"鄂托克旗"},{"id":"f90f13b27fea4f55989a35a0dc880e88","name":"内蒙古鄂尔多斯市达拉特旗银肯塔拉沙漠生态旅游区","description":null,"aLevel":"4A","longitude":108.55101,"latitude":40.647388,"cityId":"5d8e43b7f1434e93a7932d8ab5f85211","cityName":"鄂尔多斯市","cityCode":"0477","districtId":"8750a4a460d3415697ac91d00af2c542","districtName":"杭锦旗"},{"id":"81090d4c8439460c801d3bbe1d06fd15","name":"城川红色文化旅游区","description":null,"aLevel":"4A","longitude":108.286607,"latitude":37.7112,"cityId":"5d8e43b7f1434e93a7932d8ab5f85211","cityName":"鄂尔多斯市","cityCode":"0477","districtId":"dcd3f8dceeb44c6f8120ef005b2f4504","districtName":"鄂托克前旗"},{"id":"bf717c476e1c47d2b7ee4016500e2a7a","name":"佛教文化博览园","description":null,"aLevel":"4A","longitude":109.747435,"latitude":39.565064,"cityId":"5d8e43b7f1434e93a7932d8ab5f85211","cityName":"鄂尔多斯市","cityCode":"0477","districtId":"873462ba347e4c67aed45634ebe0159e","districtName":"伊金霍洛旗"},{"id":"8fc8db1b410640d5a01d4945cd70398a","name":"萨拉乌苏旅游区","description":null,"aLevel":"4A","longitude":108.725867,"latitude":37.940825,"cityId":"5d8e43b7f1434e93a7932d8ab5f85211","cityName":"鄂尔多斯市","cityCode":"0477","districtId":"970eb0b06be142ff813dfd552e1dc9b5","districtName":"乌审旗"},{"id":"19163e948e0a43eb8de74963d16e0a1a","name":"万家惠欢乐世界游乐园","description":null,"aLevel":"4A","longitude":109.945123,"latitude":39.843974,"cityId":"5d8e43b7f1434e93a7932d8ab5f85211","cityName":"鄂尔多斯市","cityCode":"0477","districtId":"a96ff86b7811497f87d8877c4db77da8","districtName":"东胜区"},{"id":"2d8b825b088643b4ba694a920537ccb9","name":"水镜湖休闲度假旅游区","description":null,"aLevel":"4A","longitude":110.651163,"latitude":40.064139,"cityId":"5d8e43b7f1434e93a7932d8ab5f85211","cityName":"鄂尔多斯市","cityCode":"0477","districtId":"30742d14b84c44008e2e29cea57232a4","districtName":"准格尔旗"},{"id":"03550534d43540b1b10651b393380fea","name":"草原丝路文化景区康镇","description":null,"aLevel":"4A","longitude":109.761593,"latitude":39.634122,"cityId":"5d8e43b7f1434e93a7932d8ab5f85211","cityName":"鄂尔多斯市","cityCode":"0477","districtId":"a321584f6b354754a5e96a58e52a2c8b","districtName":"康巴什区"},{"id":"5ac85b6c115f4d41b81158ac32ca319c","name":"恩格贝旅游区","description":null,"aLevel":"4A","longitude":109.437387,"latitude":40.389293,"cityId":"5d8e43b7f1434e93a7932d8ab5f85211","cityName":"鄂尔多斯市","cityCode":"0477","districtId":"9fd2858c77074db990885f03f915a55b","districtName":"达拉特旗"},{"id":"03ade6f31eeb42d595ec5af2c860894c","name":"油松王景区","description":null,"aLevel":"4A","longitude":111.239436,"latitude":39.864923,"cityId":"5d8e43b7f1434e93a7932d8ab5f85211","cityName":"鄂尔多斯市","cityCode":"0477","districtId":"30742d14b84c44008e2e29cea57232a4","districtName":"准格尔旗"},{"id":"87fabe79ccf8400284855d2ae5d4247e","name":"九城宫旅游景区","description":null,"aLevel":"4A","longitude":109.783976,"latitude":39.79989,"cityId":"5d8e43b7f1434e93a7932d8ab5f85211","cityName":"鄂尔多斯市","cityCode":"0477","districtId":"a96ff86b7811497f87d8877c4db77da8","districtName":"东胜区"},{"id":"8013f7cc3e43462ea4d87b864b65ee0c","name":"三盛公国家水利风景区","description":null,"aLevel":"4A","longitude":108.736011,"latitude":39.833243,"cityId":"5d8e43b7f1434e93a7932d8ab5f85211","cityName":"鄂尔多斯市","cityCode":"0477","districtId":"8750a4a460d3415697ac91d00af2c542","districtName":"杭锦旗"},{"id":"0905eb7acdbd4619919c7edc028876e4","name":"鄂尔多斯草原旅游区","description":null,"aLevel":"4A","longitude":108.642417,"latitude":39.822367,"cityId":"5d8e43b7f1434e93a7932d8ab5f85211","cityName":"鄂尔多斯市","cityCode":"0477","districtId":"8750a4a460d3415697ac91d00af2c542","districtName":"杭锦旗"},{"id":"0c3fc03359aa49f8927a87d75ad463d5","name":"准格尔召旅游区","description":null,"aLevel":"4A","longitude":110.150872,"latitude":39.599327,"cityId":"5d8e43b7f1434e93a7932d8ab5f85211","cityName":"鄂尔多斯市","cityCode":"0477","districtId":"30742d14b84c44008e2e29cea57232a4","districtName":"准格尔旗"},{"id":"0d2ea0da44db4ec8adf8903f9a4445fa","name":"鄂尔多斯野生动物园","description":null,"aLevel":"4A","longitude":109.890578,"latitude":39.838889,"cityId":"5d8e43b7f1434e93a7932d8ab5f85211","cityName":"鄂尔多斯市","cityCode":"0477","districtId":"a96ff86b7811497f87d8877c4db77da8","districtName":"东胜区"},{"id":"e3726e222f624819ba6495d15332691c","name":"马兰花草原旅游景区","description":null,"aLevel":"4A","longitude":106.673565,"latitude":38.379328,"cityId":"5d8e43b7f1434e93a7932d8ab5f85211","cityName":"鄂尔多斯市","cityCode":"0477","districtId":"dcd3f8dceeb44c6f8120ef005b2f4504","districtName":"鄂托克前旗"},{"id":"54fafcb8657b4863898eae8d5ac6639a","name":"鄂尔多斯羊绒工业旅游区","description":null,"aLevel":"4A","longitude":109.963403,"latitude":39.823066,"cityId":"5d8e43b7f1434e93a7932d8ab5f85211","cityName":"鄂尔多斯市","cityCode":"0477","districtId":"a96ff86b7811497f87d8877c4db77da8","districtName":"东胜区"},{"id":"cbf1824b984c4dc9bff0bde0e8e11107","name":"准格尔黄河大峡谷旅游区","description":null,"aLevel":"4A","longitude":111.435724,"latitude":39.628701,"cityId":"5d8e43b7f1434e93a7932d8ab5f85211","cityName":"鄂尔多斯市","cityCode":"0477","districtId":"30742d14b84c44008e2e29cea57232a4","districtName":"准格尔旗"},{"id":"b80729c28c07481d8856c4da068a29ff","name":"碧海阳光旅游区","description":null,"aLevel":"4A","longitude":107.975948,"latitude":39.089549,"cityId":"5d8e43b7f1434e93a7932d8ab5f85211","cityName":"鄂尔多斯市","cityCode":"0477","districtId":"679f13415e694352a2286016bfb85e1a","districtName":"鄂托克旗"},{"id":"56f68016b2a94328ab24ca455e422022","name":"察罕苏力德生态游牧旅游区","description":null,"aLevel":"4A","longitude":108.819485,"latitude":38.60453,"cityId":"5d8e43b7f1434e93a7932d8ab5f85211","cityName":"鄂尔多斯市","cityCode":"0477","districtId":"970eb0b06be142ff813dfd552e1dc9b5","districtName":"乌审旗"},{"id":"f3139836aa5d4c00b629ff3b68a997fd","name":"内蒙古鄂尔多斯市达拉特旗万通生态旅游区","description":null,"aLevel":"4A","longitude":110.468654,"latitude":40.308534,"cityId":"5d8e43b7f1434e93a7932d8ab5f85211","cityName":"鄂尔多斯市","cityCode":"0477","districtId":"9fd2858c77074db990885f03f915a55b","districtName":"达拉特旗"},{"id":"504bd8acceff4b7a9d39ffbfe4570e2f","name":"亿利库布其沙漠七星湖旅游区","description":null,"aLevel":"4A","longitude":108.394778,"latitude":40.716671,"cityId":"5d8e43b7f1434e93a7932d8ab5f85211","cityName":"鄂尔多斯市","cityCode":"0477","districtId":"8750a4a460d3415697ac91d00af2c542","districtName":"杭锦旗"}]