[{"id":"1c3c15fcb7844ba1beaf2861c556f0ba","name":"银滩旅游度假区","description":null,"aLevel":"4A","longitude":121.777237,"latitude":36.892254,"cityId":"45e803823dd44b19abaaaa55461b40fe","cityName":"威海市","cityCode":"0631","districtId":"f5320d2a800146a6941065030eae5185","districtName":"乳山市"},{"id":"82cb3b95cb1f4036b4c331da2f6f079c","name":"赤山景区","description":null,"aLevel":"4A","longitude":122.412118,"latitude":36.911107,"cityId":"45e803823dd44b19abaaaa55461b40fe","cityName":"威海市","cityCode":"0631","districtId":"5d223b70fead433aa6ce8c843a54e248","districtName":"荣成市"},{"id":"3d574cc242b543a487973feedcc40f0c","name":"福如东海文化园景区","description":null,"aLevel":"4A","longitude":121.728826,"latitude":36.83742,"cityId":"45e803823dd44b19abaaaa55461b40fe","cityName":"威海市","cityCode":"0631","districtId":"f5320d2a800146a6941065030eae5185","districtName":"乳山市"},{"id":"b826d51dcfcc4f6b82675a65c5c7f1c5","name":"天沐温泉度假区景区","description":null,"aLevel":"4A","longitude":122.071958,"latitude":37.080276,"cityId":"45e803823dd44b19abaaaa55461b40fe","cityName":"威海市","cityCode":"0631","districtId":"2f0c358efc954a2499d16c4895c1a4bf","districtName":"文登区"},{"id":"fea57a245e3e4849be145af2c1fc0305","name":"威海海滨生态公园风景带?侨乡号游轮景区","description":null,"aLevel":"4A","longitude":122.143361,"latitude":37.494487,"cityId":"45e803823dd44b19abaaaa55461b40fe","cityName":"威海市","cityCode":"0631","districtId":"3d84a3a113304aeca4fb3e06a52c6e49","districtName":"环翠区"},{"id":"6511a3a95dc34d12a9ac7ddefc602f56","name":"那香海景区","description":null,"aLevel":"4A","longitude":122.415268,"latitude":37.404053,"cityId":"45e803823dd44b19abaaaa55461b40fe","cityName":"威海市","cityCode":"0631","districtId":"5d223b70fead433aa6ce8c843a54e248","districtName":"荣成市"},{"id":"b8fe6ea7e1ad4f9ab62091bf61e060b7","name":"大乳山滨海旅游度假区","description":null,"aLevel":"4A","longitude":121.517655,"latitude":36.77805,"cityId":"45e803823dd44b19abaaaa55461b40fe","cityName":"威海市","cityCode":"0631","districtId":"f5320d2a800146a6941065030eae5185","districtName":"乳山市"},{"id":"a0efdc78593d45df8c3eba1ca43c0e96","name":"美丽岛温泉度假区旅游区","description":null,"aLevel":"4A","longitude":122.038405,"latitude":37.482411,"cityId":"45e803823dd44b19abaaaa55461b40fe","cityName":"威海市","cityCode":"0631","districtId":"3d84a3a113304aeca4fb3e06a52c6e49","districtName":"环翠区"},{"id":"a19e30681b9f4f1da290bcea81f7d2d0","name":"威海环翠楼公园景区","description":null,"aLevel":"4A","longitude":122.111596,"latitude":37.504307,"cityId":"45e803823dd44b19abaaaa55461b40fe","cityName":"威海市","cityCode":"0631","districtId":"3d84a3a113304aeca4fb3e06a52c6e49","districtName":"环翠区"},{"id":"d3cd5c868215491890b2d43f5ef3da50","name":"威海火炬高技术产业开发区林海湾景区","description":null,"aLevel":"4A","longitude":122.03475,"latitude":37.522262,"cityId":"45e803823dd44b19abaaaa55461b40fe","cityName":"威海市","cityCode":"0631","districtId":"3d84a3a113304aeca4fb3e06a52c6e49","districtName":"环翠区"},{"id":"53aad5bde62047f18586dbf7687e957c","name":"望岛仙姑顶景区","description":null,"aLevel":"4A","longitude":122.106881,"latitude":37.462803,"cityId":"45e803823dd44b19abaaaa55461b40fe","cityName":"威海市","cityCode":"0631","districtId":"3d84a3a113304aeca4fb3e06a52c6e49","districtName":"环翠区"},{"id":"21f2ec957b96445592fadc5becc4b037","name":"汤泊温泉度假村景区","description":null,"aLevel":"4A","longitude":122.103002,"latitude":37.258998,"cityId":"45e803823dd44b19abaaaa55461b40fe","cityName":"威海市","cityCode":"0631","districtId":"2f0c358efc954a2499d16c4895c1a4bf","districtName":"文登区"},{"id":"028b614809464ea2ae0afb343b1690a8","name":"金山温泉度假区","description":null,"aLevel":"4A","longitude":122.038405,"latitude":37.482411,"cityId":"45e803823dd44b19abaaaa55461b40fe","cityName":"威海市","cityCode":"0631","districtId":"3d84a3a113304aeca4fb3e06a52c6e49","districtName":"环翠区"}]