[{"id":"43b6437b6bc04603bdb31284cac9425a","name":"仁寿城市湿地公园景区","description":null,"aLevel":"4A","longitude":104.172071,"latitude":29.998528,"cityId":"4d989c2633a444a3a017afb661592f14","cityName":"眉山市","cityCode":"1833","districtId":"8f4275fcbb4e441bbd3f48544c853eca","districtName":"仁寿县"},{"id":"750bfd9771d846b5845921b33d15c0af","name":"黑龙滩旅游景区","description":null,"aLevel":"4A","longitude":104.017278,"latitude":30.103967,"cityId":"4d989c2633a444a3a017afb661592f14","cityName":"眉山市","cityCode":"1833","districtId":"8f4275fcbb4e441bbd3f48544c853eca","districtName":"仁寿县"},{"id":"7d88ac73c706401591552cad80570bd4","name":"三苏祠景区","description":null,"aLevel":"4A","longitude":103.830863,"latitude":30.040704,"cityId":"4d989c2633a444a3a017afb661592f14","cityName":"眉山市","cityCode":"1833","districtId":"7299def02a104f418829a6eb4db53d16","districtName":"东坡区"},{"id":"d38db3cdb86444e7a24e5f8debf85424","name":"柳江古镇旅游景区","description":null,"aLevel":"4A","longitude":103.232271,"latitude":29.71575,"cityId":"4d989c2633a444a3a017afb661592f14","cityName":"眉山市","cityCode":"1833","districtId":"8440bdf5305e43c7b447a3e5450ae290","districtName":"洪雅县"},{"id":"2f1fff4f110a487380deab7729328719","name":"中国泡菜城旅游景区","description":null,"aLevel":"4A","longitude":103.824422,"latitude":29.975379,"cityId":"4d989c2633a444a3a017afb661592f14","cityName":"眉山市","cityCode":"1833","districtId":"7299def02a104f418829a6eb4db53d16","districtName":"东坡区"},{"id":"3d5e3e84470148019912b72253a293f6","name":"江湾神木园景区","description":null,"aLevel":"4A","longitude":103.846111,"latitude":29.823598,"cityId":"4d989c2633a444a3a017afb661592f14","cityName":"眉山市","cityCode":"1833","districtId":"fb1117e9293649ef9abe07ff68b4286d","districtName":"青神县"},{"id":"3c7d4f9ef553400e8d71cd28bcbd9248","name":"瓦屋山景区","description":null,"aLevel":"4A","longitude":102.995917,"latitude":29.675707,"cityId":"4d989c2633a444a3a017afb661592f14","cityName":"眉山市","cityCode":"1833","districtId":"8440bdf5305e43c7b447a3e5450ae290","districtName":"洪雅县"},{"id":"24c70d16b81d4acbbeb8e677f624bc7f","name":"国际竹艺城旅游景区","description":null,"aLevel":"4A","longitude":103.846596,"latitude":29.831302,"cityId":"4d989c2633a444a3a017afb661592f14","cityName":"眉山市","cityCode":"1833","districtId":"fb1117e9293649ef9abe07ff68b4286d","districtName":"青神县"}]