[{"id":"4e065ac357f948658c8706cbca772743","name":"君乐宝乳业工业旅游区","description":null,"aLevel":"4A","longitude":114.390826,"latitude":37.965968,"cityId":"26ce88105af346b0a2d6154ee7fa5a6e","cityName":"石家庄市","cityCode":"0311","districtId":"27f81b09755f43688efff264f9896f4f","districtName":"鹿泉区"},{"id":"4fda982a6eb4424bbb9d236ddc7d1ff9","name":"白鹿温泉景区","description":null,"aLevel":"4A","longitude":113.981494,"latitude":38.249635,"cityId":"26ce88105af346b0a2d6154ee7fa5a6e","cityName":"石家庄市","cityCode":"0311","districtId":"863f105d4cb94c70be0d83ad58aa516b","districtName":"平山县"},{"id":"7d1bfaaee5b64cc08cf435ab3de3e475","name":"华北军区烈士陵园红色旅游经典景区","description":null,"aLevel":"4A","longitude":114.464927,"latitude":38.045285,"cityId":"26ce88105af346b0a2d6154ee7fa5a6e","cityName":"石家庄市","cityCode":"0311","districtId":"3e7d48ba3df2499bad702cbe3736a930","districtName":"桥西区"},{"id":"cbab9bec44f34a64b90c3b055e0ee790","name":"西苑温泉景区","description":null,"aLevel":"4A","longitude":113.981715,"latitude":38.268011,"cityId":"26ce88105af346b0a2d6154ee7fa5a6e","cityName":"石家庄市","cityCode":"0311","districtId":"863f105d4cb94c70be0d83ad58aa516b","districtName":"平山县"},{"id":"1e61faffa04f4ba0aa075fb59ca54fa3","name":"紫云山景区","description":null,"aLevel":"4A","longitude":114.186007,"latitude":38.260288,"cityId":"26ce88105af346b0a2d6154ee7fa5a6e","cityName":"石家庄市","cityCode":"0311","districtId":"863f105d4cb94c70be0d83ad58aa516b","districtName":"平山县"},{"id":"40ba3ffbf3614ef282067b3d927550cc","name":"抱犊寨风景区","description":null,"aLevel":"4A","longitude":114.277582,"latitude":38.088213,"cityId":"26ce88105af346b0a2d6154ee7fa5a6e","cityName":"石家庄市","cityCode":"0311","districtId":"27f81b09755f43688efff264f9896f4f","districtName":"鹿泉区"},{"id":"48d40fb4ea50411b9054990a6d659c4f","name":"佛光山景区","description":null,"aLevel":"4A","longitude":113.756009,"latitude":38.276998,"cityId":"26ce88105af346b0a2d6154ee7fa5a6e","cityName":"石家庄市","cityCode":"0311","districtId":"863f105d4cb94c70be0d83ad58aa516b","districtName":"平山县"},{"id":"f3ca9d2d06454585831f9b9a4d5ffecc","name":"嶂石岩景区","description":null,"aLevel":"4A","longitude":114.044874,"latitude":37.449888,"cityId":"26ce88105af346b0a2d6154ee7fa5a6e","cityName":"石家庄市","cityCode":"0311","districtId":"949cfb735c214af79f83829607f77412","districtName":"赞皇县"},{"id":"47e75774e5564f5d876cab690c15692e","name":"高新区天山海世界","description":null,"aLevel":"4A","longitude":114.607277,"latitude":38.03759,"cityId":"26ce88105af346b0a2d6154ee7fa5a6e","cityName":"石家庄市","cityCode":"0311","districtId":"6d75685bf6244e058c7c09a49eaf68cc","districtName":"裕华区"},{"id":"6e4356cc3cf74ede9b8aabd4f59a9343","name":"沕沕水生态风景区","description":null,"aLevel":"4A","longitude":113.752178,"latitude":38.198371,"cityId":"26ce88105af346b0a2d6154ee7fa5a6e","cityName":"石家庄市","cityCode":"0311","districtId":"863f105d4cb94c70be0d83ad58aa516b","districtName":"平山县"},{"id":"d79f3e760249433ba8b2ac5d2e459bfe","name":"正定荣国府景区","description":null,"aLevel":"4A","longitude":114.5793,"latitude":38.147919,"cityId":"26ce88105af346b0a2d6154ee7fa5a6e","cityName":"石家庄市","cityCode":"0311","districtId":"ae413fadddfb4174b32634510047f0cd","districtName":"正定县"},{"id":"9d6a256033b9413e84d7af1ec4742f1b","name":"五岳寨风景旅游区","description":null,"aLevel":"4A","longitude":113.875489,"latitude":38.706817,"cityId":"26ce88105af346b0a2d6154ee7fa5a6e","cityName":"石家庄市","cityCode":"0311","districtId":"c2516e6b800e413295dbccb57d032def","districtName":"灵寿县"},{"id":"b0889387a8cd41ec83c0af5c10cb0ff1","name":"驼梁景区","description":null,"aLevel":"4A","longitude":114.186007,"latitude":38.260288,"cityId":"26ce88105af346b0a2d6154ee7fa5a6e","cityName":"石家庄市","cityCode":"0311","districtId":"863f105d4cb94c70be0d83ad58aa516b","districtName":"平山县"},{"id":"3ada18db6b184f9da9b2beec22e862b4","name":"黑山大峡谷景区","description":null,"aLevel":"4A","longitude":113.598323,"latitude":38.544922,"cityId":"26ce88105af346b0a2d6154ee7fa5a6e","cityName":"石家庄市","cityCode":"0311","districtId":"863f105d4cb94c70be0d83ad58aa516b","districtName":"平山县"},{"id":"e823ba0d9fd843bfa0b0c69a9bb994cc","name":"秋山景区","description":null,"aLevel":"4A","longitude":114.185498,"latitude":38.532212,"cityId":"26ce88105af346b0a2d6154ee7fa5a6e","cityName":"石家庄市","cityCode":"0311","districtId":"c2516e6b800e413295dbccb57d032def","districtName":"灵寿县"},{"id":"d7bcee42df8f45d49879c80fd9a297a8","name":"天桂山景区","description":null,"aLevel":"4A","longitude":113.743336,"latitude":38.257167,"cityId":"26ce88105af346b0a2d6154ee7fa5a6e","cityName":"石家庄市","cityCode":"0311","districtId":"863f105d4cb94c70be0d83ad58aa516b","districtName":"平山县"},{"id":"ff25882a30f74c6ba013c97f64500a59","name":"东方巨龟苑景区","description":null,"aLevel":"4A","longitude":114.152758,"latitude":38.222836,"cityId":"26ce88105af346b0a2d6154ee7fa5a6e","cityName":"石家庄市","cityCode":"0311","districtId":"863f105d4cb94c70be0d83ad58aa516b","districtName":"平山县"},{"id":"c4b1b065949c41bbb69acb0bdf16cba4","name":"双凤山旅游区","description":null,"aLevel":"4A","longitude":114.313559,"latitude":38.086536,"cityId":"26ce88105af346b0a2d6154ee7fa5a6e","cityName":"石家庄市","cityCode":"0311","districtId":"27f81b09755f43688efff264f9896f4f","districtName":"鹿泉区"},{"id":"476db132d3e74041af73d13705d5a463","name":"棋盘山景区","description":null,"aLevel":"4A","longitude":114.386114,"latitude":37.666549,"cityId":"26ce88105af346b0a2d6154ee7fa5a6e","cityName":"石家庄市","cityCode":"0311","districtId":"949cfb735c214af79f83829607f77412","districtName":"赞皇县"},{"id":"75fa0bb9b62a4796bb4de409f2fdcd1a","name":"国御温泉度假小镇景区","description":null,"aLevel":"4A","longitude":114.761271,"latitude":38.03331,"cityId":"26ce88105af346b0a2d6154ee7fa5a6e","cityName":"石家庄市","cityCode":"0311","districtId":"9c93568bcb3345029929eed6a0e3637d","districtName":"藁城区"},{"id":"eb293ffc3bb9427babb2eae41dd43ef0","name":"苍岩山景区","description":null,"aLevel":"4A","longitude":114.166392,"latitude":37.833961,"cityId":"26ce88105af346b0a2d6154ee7fa5a6e","cityName":"石家庄市","cityCode":"0311","districtId":"0061b5db022b4be99b0a9ce67740d5e7","districtName":"井陉县"},{"id":"7ddc213dffbd43b5a8f6f0fc3aa19edf","name":"平山县藤龙山景区","description":null,"aLevel":"4A","longitude":114.090814,"latitude":38.526823,"cityId":"26ce88105af346b0a2d6154ee7fa5a6e","cityName":"石家庄市","cityCode":"0311","districtId":"c2516e6b800e413295dbccb57d032def","districtName":"灵寿县"},{"id":"d72d5642a7ff4241a3fef7377ec3f3e7","name":"赵州桥景区","description":null,"aLevel":"4A","longitude":114.76908,"latitude":37.72255,"cityId":"26ce88105af346b0a2d6154ee7fa5a6e","cityName":"石家庄市","cityCode":"0311","districtId":"ec54ac064bdd436dab79dd7918cae215","districtName":"赵县"},{"id":"72f36d91eabe48c5b3c4fdceb841b50a","name":"隆兴寺景区","description":null,"aLevel":"4A","longitude":114.58255,"latitude":38.144315,"cityId":"26ce88105af346b0a2d6154ee7fa5a6e","cityName":"石家庄市","cityCode":"0311","districtId":"ae413fadddfb4174b32634510047f0cd","districtName":"正定县"},{"id":"2096e649b6b9413389c9fe61c702d1fe","name":"水泉溪自然风景区","description":null,"aLevel":"4A","longitude":113.921309,"latitude":38.646414,"cityId":"26ce88105af346b0a2d6154ee7fa5a6e","cityName":"石家庄市","cityCode":"0311","districtId":"c2516e6b800e413295dbccb57d032def","districtName":"灵寿县"}]