[{"id":"be71000fea60487381003bccf76e0948","name":"西湾景区","description":null,"aLevel":"4A","longitude":108.359184,"latitude":21.638833,"cityId":"05b45db12e2444c5b5d2b299a7272a24","cityName":"防城港市","cityCode":"0770","districtId":"9e3060d572db4a2fbe714e11c6e7f1a0","districtName":"港口区"},{"id":"cb647cef81c541b59b8d64436745fe5a","name":"十万大山森林公园景区","description":null,"aLevel":"4A","longitude":107.905249,"latitude":21.897868,"cityId":"05b45db12e2444c5b5d2b299a7272a24","cityName":"防城港市","cityCode":"0770","districtId":"b6c0e0ae2c914ce39dcff295992278b9","districtName":"上思县"},{"id":"bb2ac87dee7d4550b98664dc771c8760","name":"市辖区白浪滩景区","description":null,"aLevel":"4A","longitude":108.289776,"latitude":21.54724,"cityId":"05b45db12e2444c5b5d2b299a7272a24","cityName":"防城港市","cityCode":"0770","districtId":"e679d41b4ff248388bf12a1fefd1e4ff","districtName":"防城区"},{"id":"b5a0eb0e02f8484f98256bb0f16ca7b3","name":"东兴国门景区","description":null,"aLevel":"4A","longitude":107.970247,"latitude":21.537294,"cityId":"05b45db12e2444c5b5d2b299a7272a24","cityName":"防城港市","cityCode":"0770","districtId":"2f6289d2b38346c3b2d6c2f6d3fabd38","districtName":"东兴市"},{"id":"d650f348555f4fc385c7a5229089fb36","name":"京岛风景名胜区","description":null,"aLevel":"4A","longitude":108.134513,"latitude":21.534747,"cityId":"05b45db12e2444c5b5d2b299a7272a24","cityName":"防城港市","cityCode":"0770","districtId":"2f6289d2b38346c3b2d6c2f6d3fabd38","districtName":"东兴市"},{"id":"62f0bf4b78a04507a7e1d91ce17b3c45","name":"百鸟乐园景区","description":null,"aLevel":"4A","longitude":107.914885,"latitude":21.909949,"cityId":"05b45db12e2444c5b5d2b299a7272a24","cityName":"防城港市","cityCode":"0770","districtId":"b6c0e0ae2c914ce39dcff295992278b9","districtName":"上思县"}]