[{"id":"d65f6abc689545808efa00bda4d69e53","name":"梁带村芮国遗址博物馆","description":null,"aLevel":"4A","longitude":110.495511,"latitude":35.511174,"cityId":"54d0f6c71daa42d2b87beca49a21bf27","cityName":"渭南市","cityCode":"0913","districtId":"0003090597b54e9a9ab03bf29fcd46bc","districtName":"韩城市"},{"id":"a711b35a064a446db0ca093287277980","name":"博物馆","description":null,"aLevel":"4A","longitude":110.440865,"latitude":35.459475,"cityId":"54d0f6c71daa42d2b87beca49a21bf27","cityName":"渭南市","cityCode":"0913","districtId":"0003090597b54e9a9ab03bf29fcd46bc","districtName":"韩城市"},{"id":"836bffb72a00476eab69186745371b6b","name":"渭华起义纪念馆","description":null,"aLevel":"4A","longitude":109.666574,"latitude":34.397449,"cityId":"54d0f6c71daa42d2b87beca49a21bf27","cityName":"渭南市","cityCode":"0913","districtId":"3a7270819adf4574a8174e4d76f29b49","districtName":"华州区"},{"id":"189434c05f8c4fedae5827b5436eb9c5","name":"党家村景区","description":null,"aLevel":"4A","longitude":110.476373,"latitude":35.529145,"cityId":"54d0f6c71daa42d2b87beca49a21bf27","cityName":"渭南市","cityCode":"0913","districtId":"0003090597b54e9a9ab03bf29fcd46bc","districtName":"韩城市"},{"id":"4590571d000a416f8f1b6c0e04bc75e4","name":"少华山景区","description":null,"aLevel":"4A","longitude":109.834507,"latitude":34.498503,"cityId":"54d0f6c71daa42d2b87beca49a21bf27","cityName":"渭南市","cityCode":"0913","districtId":"3a7270819adf4574a8174e4d76f29b49","districtName":"华州区"},{"id":"74ba1742bd144cdbbe3095407180128d","name":"丰图义仓景区","description":null,"aLevel":"4A","longitude":110.119868,"latitude":34.784843,"cityId":"54d0f6c71daa42d2b87beca49a21bf27","cityName":"渭南市","cityCode":"0913","districtId":"ff0a95dea92a45eea3df6b07f22f7ac2","districtName":"大荔县"},{"id":"6c03526081dc414899dba6070a951d51","name":"尧头窑文化旅游生态园区景区","description":null,"aLevel":"4A","longitude":109.842765,"latitude":35.154128,"cityId":"54d0f6c71daa42d2b87beca49a21bf27","cityName":"渭南市","cityCode":"0913","districtId":"d276355b22fd4ce49a6c6cbb33dad91a","districtName":"澄城县"},{"id":"1ec3e0ca71eb4db886ccaa539bf3db84","name":"富平陶艺村生态文化旅游景区","description":null,"aLevel":"4A","longitude":109.181036,"latitude":34.769219,"cityId":"54d0f6c71daa42d2b87beca49a21bf27","cityName":"渭南市","cityCode":"0913","districtId":"bb8ad096d203407398aef8afccf8a954","districtName":"富平县"},{"id":"5154196e627d4e898f93acd0b61d671a","name":"处女泉景区","description":null,"aLevel":"4A","longitude":110.337633,"latitude":35.144536,"cityId":"54d0f6c71daa42d2b87beca49a21bf27","cityName":"渭南市","cityCode":"0913","districtId":"b1bff9b478ac465d948f43f28e7b209b","districtName":"合阳县"},{"id":"49f06ee7079b43f79b07ce68db330881","name":"同州湖景区","description":null,"aLevel":"4A","longitude":109.945474,"latitude":34.755771,"cityId":"54d0f6c71daa42d2b87beca49a21bf27","cityName":"渭南市","cityCode":"0913","districtId":"ff0a95dea92a45eea3df6b07f22f7ac2","districtName":"大荔县"},{"id":"9681c5c557f04dc39c10dae703cb53b1","name":"司马迁祠景区","description":null,"aLevel":"4A","longitude":110.413465,"latitude":35.374889,"cityId":"54d0f6c71daa42d2b87beca49a21bf27","cityName":"渭南市","cityCode":"0913","districtId":"0003090597b54e9a9ab03bf29fcd46bc","districtName":"韩城市"},{"id":"b0c90e819d7747d7b5d8dba918d7eb3f","name":"渭南葡萄产业园","description":null,"aLevel":"4A","longitude":109.538767,"latitude":34.721492,"cityId":"54d0f6c71daa42d2b87beca49a21bf27","cityName":"渭南市","cityCode":"0913","districtId":"d08375a292a9481890036b8affe88d6c","districtName":"临渭区"},{"id":"374036417e2f4b0eb220ddf6bdb376d1","name":"林皋慢城旅游区","description":null,"aLevel":"4A","longitude":109.418497,"latitude":35.176735,"cityId":"54d0f6c71daa42d2b87beca49a21bf27","cityName":"渭南市","cityCode":"0913","districtId":"171c50d08fa846568492cdb55f301919","districtName":"白水县"},{"id":"e0954f55a02f4cb6b29dde80fdeb9cef","name":"唐桥陵景区","description":null,"aLevel":"4A","longitude":109.586263,"latitude":34.955755,"cityId":"54d0f6c71daa42d2b87beca49a21bf27","cityName":"渭南市","cityCode":"0913","districtId":"a2729004a94740f9993797f9b95cc03e","districtName":"蒲城县"}]