[{"id":"ff4f3200c29d499eb6a6165b140b12a5","name":"鸠兹古镇风景区","description":null,"aLevel":"4A","longitude":118.444972,"latitude":31.374952,"cityId":"f879ed02e4da44248ec8211d1f6a6bd7","cityName":"芜湖市","cityCode":"0553","districtId":"3b3bbf14531646d1b76b8663f9875530","districtName":"鸠江区"},{"id":"4eb75d2f4b964c6ab3bd24bc0d83bbfc","name":"大浦乡村世界景区","description":null,"aLevel":"4A","longitude":118.417978,"latitude":31.107509,"cityId":"f879ed02e4da44248ec8211d1f6a6bd7","cityName":"芜湖市","cityCode":"0553","districtId":"4e409f046a2e4866b43bb497ca9695fe","districtName":"南陵县"},{"id":"975ddf35633d4c83aae631ceaca08f98","name":"荻港景区","description":null,"aLevel":"4A","longitude":118.012738,"latitude":31.130526,"cityId":"f879ed02e4da44248ec8211d1f6a6bd7","cityName":"芜湖市","cityCode":"0553","districtId":"2c050b71dc8c423288e28c083fbcc925","districtName":"繁昌区"},{"id":"7d023ed0f00345998dcb4a5f6fe61d00","name":"马仁奇峰森林风景旅游区","description":null,"aLevel":"4A","longitude":118.167559,"latitude":30.974543,"cityId":"f879ed02e4da44248ec8211d1f6a6bd7","cityName":"芜湖市","cityCode":"0553","districtId":"2c050b71dc8c423288e28c083fbcc925","districtName":"繁昌区"},{"id":"4717776e3bdc488d9c13536d59697fc1","name":"红色山水涧风景区","description":null,"aLevel":"4A","longitude":117.772493,"latitude":31.403272,"cityId":"f879ed02e4da44248ec8211d1f6a6bd7","cityName":"芜湖市","cityCode":"0553","districtId":"8b37f40cf4ff4404bba230a201e26b00","districtName":"无为市"},{"id":"67c26366fe364a53ade76f5697d8ea1e","name":"赭山公园","description":null,"aLevel":"4A","longitude":118.377059,"latitude":31.342512,"cityId":"f879ed02e4da44248ec8211d1f6a6bd7","cityName":"芜湖市","cityCode":"0553","districtId":"2001d11b5fe548178448e4fa235fde6f","districtName":"镜湖区"},{"id":"f095c181b6bc426c822871a8558303c5","name":"王稼祥纪念园","description":null,"aLevel":"4A","longitude":118.362047,"latitude":31.342062,"cityId":"f879ed02e4da44248ec8211d1f6a6bd7","cityName":"芜湖市","cityCode":"0553","districtId":"2001d11b5fe548178448e4fa235fde6f","districtName":"镜湖区"},{"id":"29ee23903cf649e5b14a78c731135eaa","name":"雨耕山文化旅游景区","description":null,"aLevel":"4A","longitude":118.365016,"latitude":31.329025,"cityId":"f879ed02e4da44248ec8211d1f6a6bd7","cityName":"芜湖市","cityCode":"0553","districtId":"2001d11b5fe548178448e4fa235fde6f","districtName":"镜湖区"},{"id":"2291c4858ca2449d8c9d8ac038a3be02","name":"何湾镇丫山景区","description":null,"aLevel":"4A","longitude":118.018066,"latitude":30.806952,"cityId":"f879ed02e4da44248ec8211d1f6a6bd7","cityName":"芜湖市","cityCode":"0553","districtId":"4e409f046a2e4866b43bb497ca9695fe","districtName":"南陵县"},{"id":"394de5e03e594242ad96923d8a128e6e","name":"芜湖县陶辛水韵旅游区","description":null,"aLevel":"4A","longitude":118.481892,"latitude":31.163611,"cityId":"f879ed02e4da44248ec8211d1f6a6bd7","cityName":"芜湖市","cityCode":"0553","districtId":"0fdb661d506d43868b03fff5441724b6","districtName":"湾沚区"},{"id":"9593bcaeb159472997c8d945f80f3da5","name":"鸠兹风景区","description":null,"aLevel":"4A","longitude":118.373515,"latitude":31.32919,"cityId":"f879ed02e4da44248ec8211d1f6a6bd7","cityName":"芜湖市","cityCode":"0553","districtId":"2001d11b5fe548178448e4fa235fde6f","districtName":"镜湖区"}]