[{"id":"2553556aaa234322b2f9040e7caa7409","name":"三十二梁旅游景区","description":null,"aLevel":"4A","longitude":107.292028,"latitude":31.574877,"cityId":"27d3b82ae1a94a47ac5830a1c73d118e","cityName":"巴中市","cityCode":"0827","districtId":"9183ede6447f445488a8e8a560873996","districtName":"平昌县"},{"id":"72b5b6e90f764b23803205d571425b71","name":"七彩佛龛旅游景区","description":null,"aLevel":"4A","longitude":106.76887,"latitude":31.851458,"cityId":"27d3b82ae1a94a47ac5830a1c73d118e","cityName":"巴中市","cityCode":"0827","districtId":"1751185b86a944e8ab23d841f8012aa7","districtName":"巴州区"},{"id":"2ee3ff1996f44ae79faf1296219f5597","name":"佛头山旅游景区","description":null,"aLevel":"4A","longitude":107.104503,"latitude":31.577057,"cityId":"27d3b82ae1a94a47ac5830a1c73d118e","cityName":"巴中市","cityCode":"0827","districtId":"9183ede6447f445488a8e8a560873996","districtName":"平昌县"},{"id":"0a98e0519dd84b60a725179d001a1d42","name":"万寿养生谷景区","description":null,"aLevel":"4A","longitude":106.471682,"latitude":31.600796,"cityId":"27d3b82ae1a94a47ac5830a1c73d118e","cityName":"巴中市","cityCode":"0827","districtId":"337730ad417646158dee4bb629fc2d87","districtName":"恩阳区"},{"id":"2c50233b99c94bf68bc9529cf3f291d9","name":"南天门旅游景区","description":null,"aLevel":"4A","longitude":107.103613,"latitude":31.560436,"cityId":"27d3b82ae1a94a47ac5830a1c73d118e","cityName":"巴中市","cityCode":"0827","districtId":"9183ede6447f445488a8e8a560873996","districtName":"平昌县"},{"id":"bd4605a53fe04a1d90f0600eb2ad42c0","name":"白衣古镇景区","description":null,"aLevel":"4A","longitude":107.095152,"latitude":31.561415,"cityId":"27d3b82ae1a94a47ac5830a1c73d118e","cityName":"巴中市","cityCode":"0827","districtId":"9183ede6447f445488a8e8a560873996","districtName":"平昌县"},{"id":"d14132acf53644d2b2e96e9519461b59","name":"南龛山景区","description":null,"aLevel":"4A","longitude":104.076452,"latitude":30.651696,"cityId":"27d3b82ae1a94a47ac5830a1c73d118e","cityName":"巴中市","cityCode":"0827","districtId":"1751185b86a944e8ab23d841f8012aa7","districtName":"巴州区"},{"id":"e38b9efd59e24510adfd79d942d11cf0","name":"恩阳古镇景区","description":null,"aLevel":"4A","longitude":106.630708,"latitude":31.79149,"cityId":"27d3b82ae1a94a47ac5830a1c73d118e","cityName":"巴中市","cityCode":"0827","districtId":"337730ad417646158dee4bb629fc2d87","districtName":"恩阳区"},{"id":"9562b21b03db403eba628bb0165d11d5","name":"通江王坪旅游景区","description":null,"aLevel":"4A","longitude":107.422124,"latitude":32.105701,"cityId":"27d3b82ae1a94a47ac5830a1c73d118e","cityName":"巴中市","cityCode":"0827","districtId":"a87adb156e234ca3b5ac9cb754e5290e","districtName":"通江县"},{"id":"ac888c3d81734ef5a48e96f77805ccff","name":"醉美玉湖-七彩长滩旅游区","description":null,"aLevel":"4A","longitude":106.610887,"latitude":31.943763,"cityId":"27d3b82ae1a94a47ac5830a1c73d118e","cityName":"巴中市","cityCode":"0827","districtId":"9d8681157e3c4cfaad24be65f91e0967","districtName":"南江县"},{"id":"1872e0728d494b14a5c7a01d5ff8c5ff","name":"米仓山景区","description":null,"aLevel":"4A","longitude":106.953628,"latitude":32.715173,"cityId":"27d3b82ae1a94a47ac5830a1c73d118e","cityName":"巴中市","cityCode":"0827","districtId":"9d8681157e3c4cfaad24be65f91e0967","districtName":"南江县"},{"id":"1c62cd554b0a41389eeba7ebf2e7252d","name":"巴灵台4A风景区","description":null,"aLevel":"4A","longitude":107.103613,"latitude":31.560436,"cityId":"27d3b82ae1a94a47ac5830a1c73d118e","cityName":"巴中市","cityCode":"0827","districtId":"9183ede6447f445488a8e8a560873996","districtName":"平昌县"},{"id":"cb47f2b7cf21431dba08aa08c012cc1a","name":"国色天乡旅游区","description":null,"aLevel":"4A","longitude":106.883638,"latitude":31.840351,"cityId":"27d3b82ae1a94a47ac5830a1c73d118e","cityName":"巴中市","cityCode":"0827","districtId":"1751185b86a944e8ab23d841f8012aa7","districtName":"巴州区"},{"id":"1ba91082930d42a1b106afa2df92e5d8","name":"光雾山景区","description":null,"aLevel":"4A","longitude":104.076452,"latitude":30.651696,"cityId":"27d3b82ae1a94a47ac5830a1c73d118e","cityName":"巴中市","cityCode":"0827","districtId":"9d8681157e3c4cfaad24be65f91e0967","districtName":"南江县"},{"id":"3532cb3657c540ff909eb4dc7333a244","name":"西兴镇皇家山景区","description":null,"aLevel":"4A","longitude":107.052229,"latitude":31.370872,"cityId":"27d3b82ae1a94a47ac5830a1c73d118e","cityName":"巴中市","cityCode":"0827","districtId":"9183ede6447f445488a8e8a560873996","districtName":"平昌县"},{"id":"91503c44f16441529538d488aa7c06f6","name":"诺水河旅游景区","description":null,"aLevel":"4A","longitude":107.184565,"latitude":32.328254,"cityId":"27d3b82ae1a94a47ac5830a1c73d118e","cityName":"巴中市","cityCode":"0827","districtId":"a87adb156e234ca3b5ac9cb754e5290e","districtName":"通江县"},{"id":"2bf905b466f24378a567d8a699f7e705","name":"云顶茶乡旅游景区","description":null,"aLevel":"4A","longitude":106.65732,"latitude":32.028302,"cityId":"27d3b82ae1a94a47ac5830a1c73d118e","cityName":"巴中市","cityCode":"0827","districtId":"9d8681157e3c4cfaad24be65f91e0967","districtName":"南江县"},{"id":"033bb88384a141d49f54daad8040c91f","name":"驷马水乡旅游景区","description":null,"aLevel":"4A","longitude":107.039646,"latitude":31.759161,"cityId":"27d3b82ae1a94a47ac5830a1c73d118e","cityName":"巴中市","cityCode":"0827","districtId":"9183ede6447f445488a8e8a560873996","districtName":"平昌县"},{"id":"392f63e9ad85433a8356e37e806f4f80","name":"空山天盆旅游景区","description":null,"aLevel":"4A","longitude":107.367361,"latitude":32.47926,"cityId":"27d3b82ae1a94a47ac5830a1c73d118e","cityName":"巴中市","cityCode":"0827","districtId":"a87adb156e234ca3b5ac9cb754e5290e","districtName":"通江县"},{"id":"fd6bd9bff6714289b9a1f9ce66c51c96","name":"山水化湖景区","description":null,"aLevel":"4A","longitude":106.891964,"latitude":31.907259,"cityId":"27d3b82ae1a94a47ac5830a1c73d118e","cityName":"巴中市","cityCode":"0827","districtId":"1751185b86a944e8ab23d841f8012aa7","districtName":"巴州区"},{"id":"ceeb855c4cee421a93c4fad4dd98be33","name":"唱歌石林旅游景区","description":null,"aLevel":"4A","longitude":107.43017,"latitude":31.947388,"cityId":"27d3b82ae1a94a47ac5830a1c73d118e","cityName":"巴中市","cityCode":"0827","districtId":"a87adb156e234ca3b5ac9cb754e5290e","districtName":"通江县"}]