[{"id":"536c4b595d0843b1b79614bf3b21047a","name":"绥阳双门峡旅游景区","description":null,"aLevel":"4A","longitude":107.117805,"latitude":28.018,"cityId":"59e4be44ed7642cdbc0f6b4802c092f2","cityName":"遵义市","cityCode":"0852","districtId":"86733a532d6d47a4b04433aa78720e72","districtName":"绥阳县"},{"id":"bd7b64ab8689497ba64d22a83854fc2a","name":"丙安古镇景区","description":null,"aLevel":"4A","longitude":105.825406,"latitude":28.471206,"cityId":"59e4be44ed7642cdbc0f6b4802c092f2","cityName":"遵义市","cityCode":"0852","districtId":"30cccf9d03f045c08c1ad1bbb85f5051","districtName":"赤水市"},{"id":"e7415b98b8b841e99d5f30c958ff3606","name":"四渡赤水纪念馆","description":null,"aLevel":"4A","longitude":105.998682,"latitude":28.276181,"cityId":"59e4be44ed7642cdbc0f6b4802c092f2","cityName":"遵义市","cityCode":"0852","districtId":"54d663916bb84cc39a2a6dc5e3002987","districtName":"习水县"},{"id":"7f367a6319014a269da6371dc94aa438","name":"播州苟坝红色旅游景区","description":null,"aLevel":"4A","longitude":106.568969,"latitude":27.639375,"cityId":"59e4be44ed7642cdbc0f6b4802c092f2","cityName":"遵义市","cityCode":"0852","districtId":"646e27e8a60a4805a27965a0c1898652","districtName":"播州区"},{"id":"68bb779ae8354ef18c653fb6c8232fe6","name":"绥阳红果树旅游景区","description":null,"aLevel":"4A","longitude":107.191326,"latitude":27.946049,"cityId":"59e4be44ed7642cdbc0f6b4802c092f2","cityName":"遵义市","cityCode":"0852","districtId":"86733a532d6d47a4b04433aa78720e72","districtName":"绥阳县"},{"id":"db25564bd7d843a4910f4e9e0ccca0a5","name":"正安桃花源记景区","description":null,"aLevel":"4A","longitude":107.603671,"latitude":28.233802,"cityId":"59e4be44ed7642cdbc0f6b4802c092f2","cityName":"遵义市","cityCode":"0852","districtId":"c4e4be4608004f0e9db97f4d04319f8a","districtName":"正安县"},{"id":"6a34d8dad3844531b7f751ae070d4613","name":"土城古镇景区","description":null,"aLevel":"4A","longitude":105.994063,"latitude":28.280767,"cityId":"59e4be44ed7642cdbc0f6b4802c092f2","cityName":"遵义市","cityCode":"0852","districtId":"54d663916bb84cc39a2a6dc5e3002987","districtName":"习水县"},{"id":"d0fe936b31e14ccf943b523d47d9466e","name":"仁怀茅台酒镇旅游区","description":null,"aLevel":"4A","longitude":106.360042,"latitude":27.85376,"cityId":"59e4be44ed7642cdbc0f6b4802c092f2","cityName":"遵义市","cityCode":"0852","districtId":"2cf71a7d468543b5988e6057d0cfbcef","districtName":"仁怀市"},{"id":"3e687566302c49378a11589c4a663ab8","name":"仡佬文化旅游景区","description":null,"aLevel":"4A","longitude":107.963583,"latitude":28.606762,"cityId":"59e4be44ed7642cdbc0f6b4802c092f2","cityName":"遵义市","cityCode":"0852","districtId":"c5a0babf9c7c41eb93686b976d514f9e","districtName":"务川仡佬族苗族自治县"},{"id":"f654e5a62a9040c483166677d4a7cb38","name":"珠穆朗玛国家级自然保护区","description":null,"aLevel":"4A","longitude":105.934878,"latitude":28.276996,"cityId":"59e4be44ed7642cdbc0f6b4802c092f2","cityName":"遵义市","cityCode":"0852","districtId":"54d663916bb84cc39a2a6dc5e3002987","districtName":"习水县"},{"id":"71b85685a3d442c0bcae6906699ae4bd","name":"拉浪生态休闲度假区","description":null,"aLevel":"4A","longitude":106.706424,"latitude":28.246241,"cityId":"59e4be44ed7642cdbc0f6b4802c092f2","cityName":"遵义市","cityCode":"0852","districtId":"398f181cee6346dfb19ea5e89bf72bc3","districtName":"桐梓县"},{"id":"6e81017864bd406c8adc6921ba228a8c","name":"湄潭天下第一壶茶文化旅游景区","description":null,"aLevel":"4A","longitude":107.465492,"latitude":27.748942,"cityId":"59e4be44ed7642cdbc0f6b4802c092f2","cityName":"遵义市","cityCode":"0852","districtId":"f78ef5afb7044edd9d9014c0c82d2448","districtName":"湄潭县"},{"id":"852254a6349848018e206fceb662dd5d","name":"永安镇中国西部茶海之心景区","description":null,"aLevel":"4A","longitude":107.574114,"latitude":28.078301,"cityId":"59e4be44ed7642cdbc0f6b4802c092f2","cityName":"遵义市","cityCode":"0852","districtId":"aa922b9aaaf84f9da11c6ec30910950f","districtName":"凤冈县"},{"id":"d368bd98e5154493b0c47a93cc4668b6","name":"赤水丹霞旅游区·大瀑布景区","description":null,"aLevel":"4A","longitude":105.748552,"latitude":28.379466,"cityId":"59e4be44ed7642cdbc0f6b4802c092f2","cityName":"遵义市","cityCode":"0852","districtId":"30cccf9d03f045c08c1ad1bbb85f5051","districtName":"赤水市"},{"id":"825852a021c04b6d8f5185f63121e6eb","name":"汇川海龙屯旅游景区","description":null,"aLevel":"4A","longitude":106.859549,"latitude":27.79969,"cityId":"59e4be44ed7642cdbc0f6b4802c092f2","cityName":"遵义市","cityCode":"0852","districtId":"0ec142b3e584400181c3eaed5d348ff1","districtName":"汇川区"},{"id":"21c941db0428408db8368ad045d97ea4","name":"四洞沟景区","description":null,"aLevel":"4A","longitude":105.649061,"latitude":28.459271,"cityId":"59e4be44ed7642cdbc0f6b4802c092f2","cityName":"遵义市","cityCode":"0852","districtId":"30cccf9d03f045c08c1ad1bbb85f5051","districtName":"赤水市"},{"id":"7b4335655a374296b0328cbac2482220","name":"汇川娄山关景区","description":null,"aLevel":"4A","longitude":106.868043,"latitude":28.001215,"cityId":"59e4be44ed7642cdbc0f6b4802c092f2","cityName":"遵义市","cityCode":"0852","districtId":"0ec142b3e584400181c3eaed5d348ff1","districtName":"汇川区"},{"id":"0a7c9ef1ef374bee96a49fd6c435eefd","name":"遵义会议会址旅游景区","description":null,"aLevel":"4A","longitude":106.919631,"latitude":27.688622,"cityId":"59e4be44ed7642cdbc0f6b4802c092f2","cityName":"遵义市","cityCode":"0852","districtId":"6583462681d14fceb22c90a3e1373ea8","districtName":"红花岗区"},{"id":"70ae4cc104df4599a677a4e18eff1c50","name":"赤水丹霞旅游区·燕子岩景区","description":null,"aLevel":"4A","longitude":105.746524,"latitude":28.354268,"cityId":"59e4be44ed7642cdbc0f6b4802c092f2","cityName":"遵义市","cityCode":"0852","districtId":"30cccf9d03f045c08c1ad1bbb85f5051","districtName":"赤水市"},{"id":"46fb234de851444d9f7aaf8d6e64348b","name":"绥阳清溪峡景区","description":null,"aLevel":"4A","longitude":107.204442,"latitude":28.392321,"cityId":"59e4be44ed7642cdbc0f6b4802c092f2","cityName":"遵义市","cityCode":"0852","districtId":"86733a532d6d47a4b04433aa78720e72","districtName":"绥阳县"},{"id":"6ddb4f9e8b5448eabce7b007d9318703","name":"余庆飞龙寨景区","description":null,"aLevel":"4A","longitude":107.446355,"latitude":27.377785,"cityId":"59e4be44ed7642cdbc0f6b4802c092f2","cityName":"遵义市","cityCode":"0852","districtId":"06d80d452d8b4808bb68a688e3c8ef84","districtName":"余庆县"},{"id":"5dcce94167954cfebb0fc1732385a235","name":"桐梓水银河大峡谷旅游景区","description":null,"aLevel":"4A","longitude":106.908553,"latitude":28.618252,"cityId":"59e4be44ed7642cdbc0f6b4802c092f2","cityName":"遵义市","cityCode":"0852","districtId":"398f181cee6346dfb19ea5e89bf72bc3","districtName":"桐梓县"},{"id":"30645265a450423490e5db518c1dcadb","name":"湄潭茶海生态园景区","description":null,"aLevel":"4A","longitude":107.471865,"latitude":27.751548,"cityId":"59e4be44ed7642cdbc0f6b4802c092f2","cityName":"遵义市","cityCode":"0852","districtId":"f78ef5afb7044edd9d9014c0c82d2448","districtName":"湄潭县"},{"id":"4eb8ae268725432e8c29df82999fb70d","name":"桐梓杉坪旅游景区","description":null,"aLevel":"4A","longitude":106.842272,"latitude":28.071391,"cityId":"59e4be44ed7642cdbc0f6b4802c092f2","cityName":"遵义市","cityCode":"0852","districtId":"398f181cee6346dfb19ea5e89bf72bc3","districtName":"桐梓县"},{"id":"407880836542447eaad2e67c05a10c09","name":"绥阳双河洞旅游景区","description":null,"aLevel":"4A","longitude":107.191326,"latitude":27.946049,"cityId":"59e4be44ed7642cdbc0f6b4802c092f2","cityName":"遵义市","cityCode":"0852","districtId":"86733a532d6d47a4b04433aa78720e72","districtName":"绥阳县"},{"id":"efc57a2b43c14af3bc33ecbcc741b71b","name":"仁怀茅台中国酒文化城","description":null,"aLevel":"4A","longitude":106.373938,"latitude":27.852485,"cityId":"59e4be44ed7642cdbc0f6b4802c092f2","cityName":"遵义市","cityCode":"0852","districtId":"2cf71a7d468543b5988e6057d0cfbcef","districtName":"仁怀市"},{"id":"054dabe23e904ebe836cef845f3d8b31","name":"赤水丹霞旅游区·佛光岩景区","description":null,"aLevel":"4A","longitude":105.947209,"latitude":28.401435,"cityId":"59e4be44ed7642cdbc0f6b4802c092f2","cityName":"遵义市","cityCode":"0852","districtId":"30cccf9d03f045c08c1ad1bbb85f5051","districtName":"赤水市"},{"id":"f934c9d5822a4b7a9a7af620ea576088","name":"新蒲水上大天门旅游景区（云门囤景区）","description":null,"aLevel":"4A","longitude":107.291023,"latitude":27.634704,"cityId":"59e4be44ed7642cdbc0f6b4802c092f2","cityName":"遵义市","cityCode":"0852","districtId":"6583462681d14fceb22c90a3e1373ea8","districtName":"红花岗区"},{"id":"ba6d4abcdeb04c849919ff5f12e2c11b","name":"中国丹霞谷景区","description":null,"aLevel":"4A","longitude":106.408267,"latitude":28.497859,"cityId":"59e4be44ed7642cdbc0f6b4802c092f2","cityName":"遵义市","cityCode":"0852","districtId":"54d663916bb84cc39a2a6dc5e3002987","districtName":"习水县"}]